,timestamp,value,station_name,station_no,station_latitude,station_longitude
0,2010-02-01,47.8,Abbey St Bathans,15018,55.8532963314108,-2.38744835623352
1,2010-02-01,97.0,Dipple,115217,57.61125291,-3.115476523
2,2010-02-01,64.0,Luib,115376,57.5445048,-5.123945869
3,2010-02-01,113.4,Beltmoss,327235,55.98678855,-4.056528766
4,2010-02-01,99.6,Lukeston,327237,55.98447497,-4.240765022
5,2010-02-01,78.6,Saughall,115645,55.60098751,-4.226431521
6,2010-02-01,56.4,Luss Raingauge,129558,56.09892116,-4.638863963
7,2010-02-01,3.0,Bannockburn,14897,56.09528478,-3.911816854
8,2010-02-01,52.0,Lyne Station,14974,55.6473318263272,-3.25808918040462
9,2010-02-01,75.8,Waulkmill Glen,115660,55.79484353,-4.353627607
10,2010-02-01,54.2,Meadowfoot,115616,55.40534471,-3.799886702
11,2010-02-01,1.0,Baluniefield,374852,56.48264025,-2.905576117
12,2010-02-01,77.2,Ettrick Bay,115563,55.85650223,-5.145834193
13,2010-02-01,30.0,Merton Bank Lochmaben,115617,55.13494009,-3.439865821
14,2010-02-01,59.0,Dosmucheran,234202,57.59587318,-5.005770119
15,2010-02-01,67.8,Gladhouse Reservoir,15204,55.7784118,-3.117398754
16,2010-02-01,76.2,Balmedie STW,115202,57.25007263,-2.0473803
17,2010-02-01,38.2,Biggar Burn,368536,55.6503509335496,-3.54376527843482
18,2010-02-01,86.2,Fife Airport,15151,56.1816502,-3.222449068
19,2010-02-01,0.0,Drum,464646,56.18484641,-3.532323684
20,2010-02-01,83.8,Weisdale Mill,116008,60.2593269,-1.288604022
21,2010-02-01,0.0,Eskdalemuir Observatory,15100,55.3115132595484,-3.20679877544895
22,2010-02-01,0.0,Baintown Rain-gauge,501947,56.22101614,-3.042679056
23,2010-02-01,51.2,Luffness,14865,56.02022484,-2.821888561
24,2010-02-01,49.4,Minnigaff,338429,54.9588823,-4.471659058
25,2010-02-01,0.0,Balfron STW,517412,56.0652344105772,-4.33334331797487
26,2010-02-01,113.4,Esslemont House,115221,57.36510966,-2.112363417
27,2010-02-01,65.4,Millport,115618,55.74955539,-4.907441406
28,2010-02-01,0.0,Mill Of Gavel,205209,57.55561687,-2.009109628
29,2010-02-01,0.0,Balgray RG,490985,55.73428872,-4.5878755
30,2010-02-01,91.2,Mill Croft,354623,57.2886568,-7.368331541
31,2010-02-01,118.4,Saline,15155,56.12224003,-3.585958925
32,2010-02-01,63.6,Tobermory,115654,56.62026156,-6.080645248
33,2010-02-01,40.6,Forter,14948,56.76674681,-3.332205729
34,2010-02-01,66.4,Mongour,115235,57.00199506,-2.388582046
35,2010-02-01,52.4,Braeroy Lodge,115315,56.98511362,-4.738585589
36,2010-02-01,107.6,Little Assynt,234264,58.1743810886208,-5.15230276806827
37,2010-02-01,57.2,Loch Ailsh Level,354613,58.04827715,-4.855312073
38,2010-02-01,28.0,Braco (Dunduff),15161,56.28192154,-3.904225732
39,2010-02-01,69.2,Wardend Bridge,234331,57.58239454,-3.608335401
40,2010-02-01,71.8,Dingwall,115329,57.5999202496956,-4.44699709665912
41,2010-02-01,63.4,Loch Droma,115368,57.73309629,-4.936434641
42,2010-02-01,0.0,Bow Burn - WQMS,101227,55.44068058,-4.498633861
43,2010-02-01,79.0,Forsinain,115340,58.41100711,-3.873563607
44,2010-02-01,63.4,Loch Katrine,14910,56.22701614,-4.436245731
45,2010-02-01,35.6,Boreland,115518,55.20254702,-3.320073284
46,2010-02-01,107.4,Rothienorman,115239,57.40900118,-2.466784574
47,2010-02-01,71.4,Sgodachail,234305,57.8932766383122,-4.54697639942866
48,2010-02-01,100.0,Forehill,336372,57.50635026,-1.843281987
49,2010-02-01,62.6,Boleside,533744,55.5916432342931,-2.79887877404223
50,2010-02-01,31.0,Loch Venachar,14898,56.23425763,-4.256866368
51,2010-02-01,37.6,Moar,14949,56.57276553,-4.388958153
52,2010-02-01,72.2,Scardroy No3,347562,57.51892459,-4.985935657
53,2010-02-01,108.2,Dippen,133077,55.58274848,-5.496523588
54,2010-02-01,44.4,Lochindorb North,336847,57.41478835,-3.691385645
55,2010-02-01,96.0,Blackhills No 2,115203,57.61017023,-3.222796593
56,2010-02-01,65.6,Waterside Perth,369554,56.89929851,-2.820760629
57,2010-02-01,0.0,Lochwinnoch,509677,55.7885315233721,-4.61894323306089
58,2010-02-01,41.8,Tillicoultry,15158,56.148819,-3.7458095
59,2010-02-01,53.8,Blackdyke Farm,115516,55.52935031,-4.326283061
60,2010-02-01,79.2,Letham Grange,338381,56.60403394,-2.609495534
61,2010-02-01,58.4,Low Creoch,115611,54.90352684,-4.18922643
62,2010-02-01,45.6,Flichity,115339,57.33128618,-4.221750189
63,2010-02-01,54.4,Birkie Hue,320371,58.16554218,-6.740713858
64,2010-02-01,0.0,Loch Restil,485489,56.23604254,-4.853369348
65,2010-02-01,50.4,Braidlie,133144,55.26142915,-2.824951121
66,2010-02-01,0.0,Lossiemouth,473167,57.71918475,-3.323337879
67,2010-02-01,70.8,Lingerton,133106,56.01244753,-5.422443562
68,2010-02-01,0.0,Tarland WWTP,511327,57.1250488281981,-2.8514504640691
69,2010-02-01,88.8,Ayton Castle,15132,55.8472764491842,-2.11461102258224
70,2010-02-01,62.8,Allt Dearg House,115304,57.28490502,-6.187008123
71,2010-02-01,85.2,Picketlaw Reservoir,115632,55.73611493,-4.281846657
72,2010-02-01,0.0,Badbea,518147,57.8624394131174,-5.31874666420385
73,2010-02-01,43.8,Perth Norwich Union,341345,56.38611935,-3.464092253
74,2010-02-01,0.0,Dundreggan Rain Gauge,530175,57.1916154062172,-4.76763419920281
75,2010-02-01,71.4,Amlaird,115500,55.66964373,-4.413260863
76,2010-02-01,37.6,Penwhapple Reservoir,335375,55.23585144,-4.747897404
77,2010-02-01,124.6,Amod Farm,115501,55.35009103,-5.717857841
78,2010-02-01,50.6,Ormiston Mill,15007,55.5449192444277,-2.47331449245388
79,2010-02-01,32.8,Annfield,15198,56.06640057,-3.371633207
80,2010-02-01,0.0,Dunbar,15216,56.00371307,-2.52752897
81,2010-02-01,73.6,East Kilbride,115560,55.75477386,-4.171759227
82,2010-02-01,62.0,Durkadale,234207,59.10852817,-3.232172832
83,2010-02-01,20.6,Polhollick,234294,57.05514629,-3.083180673
84,2010-02-01,0.0,Pluscarden Abbey,486057,57.59946107,-3.433170424
85,2010-02-01,133.6,Rhiconich,336217,58.42139172,-4.991227379
86,2010-02-01,124.0,Allnabad,234151,58.3471767644614,-4.64462101395753
87,2010-02-01,73.8,Whitburn,14881,55.87157334,-3.682936938
88,2010-02-01,43.6,RhynieGS,368013,57.3317252,-2.828953912
89,2010-02-01,118.4,Nunraw Abbey,15215,55.92185875,-2.653499917
90,2010-02-01,13.8,Portmoak,15149,56.19239436,-3.334726298
91,2010-02-01,41.8,Portling,115634,54.87093795,-3.744601282
92,2010-02-01,69.2,Ashgrove,115506,55.66308049,-4.757486092
93,2010-02-01,3.2,The Lecht,115244,57.20200168,-3.249607166
94,2010-02-01,107.8,Dunnswood STW (Cumbernauld),15180,55.97221885,-3.954505606
95,2010-02-01,112.6,Polmonthill STW,15187,55.99776804,-3.680208641
96,2010-02-01,65.6,Rhian Bridge,115390,58.11499626,-4.439159665
97,2010-02-01,51.4,Allanfearn,115302,57.49914747,-4.151564133
98,2010-02-01,105.4,Polloch,234295,56.75844885,-5.613663683
99,2010-02-01,85.2,Alford,234170,57.24230294,-2.717123004
100,2010-02-01,0.0,White Clauchrie,502874,55.1412921,-4.677220867
101,2010-02-01,46.2,Dunstaffnage,365257,56.45050242,-5.439870612
102,2010-02-01,69.4,Montrose,15078,56.69908575,-2.491155025
103,2010-02-01,58.4,Muirkirk STW,115622,55.51335703,-4.096604222
104,2010-02-01,98.8,Mouthbridge,15022,55.770128146213,-2.27919326297828
105,2010-02-01,64.8,Drumjohn,115557,55.24992466,-4.32205779
106,2010-02-01,60.2,Rossie Farm,15070,56.29912602,-3.202717904
107,2010-02-01,66.8,Avonbank,322556,55.66347112,-4.051617294
108,2010-02-01,0.0,Muirshiel RG,490986,55.84918458,-4.742664896
109,2010-02-01,68.0,Murton,335650,56.65077608,-2.823539396
110,2010-02-01,100.6,Avochie,234161,57.50564634,-2.782377895
111,2010-02-01,0.0,Westhill,115250,57.14756943,-2.291989375
112,2010-02-01,0.0,Baddinsgill Reservoir,15103,55.7838820984555,-3.39458495099376
113,2010-02-01,0.0,Einig Wood,492363,57.94421601,-4.764511928
114,2010-02-01,38.6,Mylnefield,335651,56.46017678,-3.075838089
115,2010-02-01,33.2,Old Mill of Newton,367364,57.35801578,-2.577016947
116,2010-02-01,48.4,Nairn Dunbar Golf Course,341224,57.59406094,-3.842759406
117,2010-02-01,179.4,Monyquil Farm,133115,55.56419458,-5.271931931
118,2010-02-01,28.8,Auchinner,14964,56.31678388,-4.112254665
119,2010-02-01,72.0,New Kelso,234289,57.42953514,-5.429999168
120,2010-02-01,39.8,Drummore of Cantray,377134,57.48325079,-4.006176025
121,2010-02-01,43.0,Eliock,115562,55.34583036,-3.899113859
122,2010-02-01,67.0,Ross Priory,133124,56.05257642,-4.55746111
123,2010-02-01,0.0,Corsock,336434,55.05876816,-3.945715778
124,2010-02-01,0.0,Laxdale,356217,57.86865846,-6.893581696
125,2010-02-01,55.0,Brigton,115521,55.03779638,-4.566314357
126,2010-02-01,173.2,Lecht Weather Station,412495,57.19821668,-3.25888009
127,2010-02-01,24.8,Auchnafree,14952,56.47302976,-3.904678161
128,2010-02-01,44.0,Teviothead,14999,55.3422273375472,-2.9364812156604
129,2010-02-01,0.0,Auchdergannach,491811,57.22063972,-3.651932222
130,2010-02-01,1.6,Nigg Headworks,335797,57.13140193,-2.061103972
131,2010-02-01,4.8,Edinburgh RBG (Royal Botanic Garden),15201,55.9666233709368,-3.21231073711968
132,2010-02-01,50.2,Newtonairds,115627,55.10134134,-3.742902191
133,2010-02-01,17.4,Auchentroig,15163,56.11221933,-4.342412217
134,2010-02-01,63.0,Newton of Falkland,15083,56.25431474,-3.186268594
135,2010-02-01,68.0,North Berwick (Kingston),335621,56.03149667,-2.734270572
136,2010-02-01,107.8,Hatton No 2,115227,57.42757524,-1.909678484
137,2010-02-01,0.0,Milton of Evelix TBR,494729,57.8912874892072,-4.08416450338909
138,2010-02-01,66.8,Strathy Bridge,234319,58.55872143,-4.002604762
139,2010-02-01,0.0,Hazelwood Cottage,115582,56.2671528358581,-5.49466255293018
140,2010-02-01,0.0,Comiston Rain Gauge,525510,55.9101940076868,-3.21598826974242
141,2010-02-01,0.0,High Corrie (Gartmore),15166,56.1262023,-4.446294544
142,2010-02-01,59.8,Gilston,15114,55.80025456,-2.883463821
143,2010-02-01,0.0,Hunterston Terminal,469625,55.74447583,-4.86116797
144,2010-02-01,65.4,Dalmarnock STW,327234,55.8374507,-4.216965486
145,2010-02-01,0.0,Comer Farm,552791,56.2015072327063,-4.60131037579935
146,2010-02-01,22.6,Hydro Gardens Moffat,115584,55.34214596,-3.452988353
147,2010-02-01,12.4,Tromie Bridge,234327,57.0717185,-3.998638147
148,2010-02-01,46.4,Inchvuilt,115354,57.40830735,-4.957620811
149,2010-02-01,77.6,Colliston,14921,56.61000991,-2.637841019
150,2010-02-01,26.8,Spey Dam,234315,57.01121062,-4.336367491
151,2010-02-01,47.6,Ingleston Farm,115585,54.81170556,-4.166358356
152,2010-02-01,69.4,Coille Mhorgil,115319,57.0643694,-5.134923813
153,2010-02-01,69.4,Inshes,336367,57.45203372,-4.184715941
154,2010-02-01,0.0,Gifford Rain Gauge,474984,55.89043578,-2.768969478
155,2010-02-01,48.0,Dalbeattie STW,115546,54.92152642,-3.821987578
156,2010-02-01,103.2,South Moorhouse,115649,55.73251416,-4.350287842
157,2010-02-01,69.6,Inverewe Garden,115356,57.77399694,-5.596995718
158,2010-02-01,35.0,Coignafearn,115318,57.23285188,-4.139289943
159,2010-02-01,16.4,Dalnamein,14960,56.79925858,-4.053453634
160,2010-02-01,13.0,Inverey,115230,56.98569953,-3.500915775
161,2010-02-01,0.0,Cleuchhead,499810,56.94774412,-2.388756894
162,2010-02-01,65.8,St Monance,335620,56.2047855,-2.78271364
163,2010-02-01,58.8,Invermark,14926,56.91121364,-2.914811966
164,2010-02-01,28.4,Upper Monachlye,116007,56.39271229,-4.463706898
165,2010-02-01,79.4,Dallachy No 2,205724,57.66404417,-3.071018416
166,2010-02-01,78.6,Harperrig,15200,55.83652095,-3.435270947
167,2010-02-01,45.4,Townfoot (Glencaple),323188,54.99473579,-3.568993615
168,2010-02-01,63.6,Strathkinness,11368,56.33136897,-2.863918962
169,2010-02-01,48.0,Glenbreck,368490,55.4820219628409,-3.47775472797171
170,2010-02-01,48.2,Hatton (Perth),335640,56.52513594,-2.648539891
171,2010-02-01,35.2,Corrimony,115322,57.33501743,-4.699729622
172,2010-02-01,0.0,Dalblair,538510,55.44485443,-4.1519297
173,2010-02-01,37.6,Glenmore Lodge No 2,115225,57.16421784,-3.677609728
174,2010-02-01,98.6,Caldercruix STW,115526,55.88933558,-3.904553259
175,2010-02-01,86.8,Glen Strae,133088,56.42522107,-5.000795867
176,2010-02-01,42.2,Glenochil,14891,56.14364525,-3.839304837
177,2010-02-01,0.0,Culloden Battlefield,498341,57.47676464,-4.09126842
178,2010-02-01,53.2,Torwinny,234326,57.52198313,-3.446843553
179,2010-02-01,82.2,Strathkelvin House,300383,55.94300475,-4.172710018
180,2010-02-01,35.0,Glenquey,464636,56.20739317,-3.642080305
181,2010-02-01,86.4,Inveruglas,115588,56.2473573,-4.71287133
182,2010-02-01,6.8,Cullen,234192,57.68712295,-2.83323079
183,2010-02-01,65.2,Daldowie STW,327232,55.83262494,-4.122714806
184,2010-02-01,73.4,Crichton,15224,55.84509063,-2.988655721
185,2010-02-01,48.2,Gordon Arms,14984,55.5113722712304,-3.09640690612754
186,2010-02-01,62.8,Greenock,327292,55.94370132,-4.723991358
187,2010-02-01,132.4,Glen Nevis,115343,56.79923208,-5.067543348
188,2010-02-01,68.4,Culzean Castle,115544,55.35068095,-4.791520726
189,2010-02-01,74.2,Creed Bridge,234190,58.20454028,-6.424227928
190,2010-02-01,0.0,Craigenlee Croft Raingauge,513003,54.8629459170786,-5.07527966446311
191,2010-02-01,76.4,Haddington STW,15226,55.9605092339233,-2.75022457021791
192,2010-02-01,52.8,Kirkcaldy,335617,56.11765342,-3.147961765
193,2010-02-01,50.8,Delnashaugh,234198,57.39970792,-3.357845061
194,2010-02-01,52.0,Gargunnock,14892,56.13266077,-4.070571402
195,2010-02-01,36.2,Gella Bridge,14916,56.77535832,-3.027929218
196,2010-02-01,60.0,Tulchan,115247,57.399186873922,-3.44381881984428
197,2010-02-01,88.2,Glenmavis,327238,55.89359141,-4.013210328
198,2010-02-01,74.4,Clachan-Seil,115534,56.30375755,-5.601429727
199,2010-02-01,68.0,Craigdarroch,115541,55.196659,-3.981943267
200,2010-02-01,101.4,Torduff,15190,55.8968016,-3.267160193
201,2010-02-01,68.6,Harelaw,335614,55.91651494,-3.086776845
202,2010-02-01,0.0,Glen Ample,335745,56.354577358483,-4.26999369364804
203,2010-02-01,99.6,Halkirk,234231,58.5154974,-3.493004244
204,2010-02-01,91.2,Stonyford,369551,56.84214794,-2.811870347
205,2010-02-01,68.0,Gogarbank,15196,55.92834002,-3.342742573
206,2010-02-01,0.0,Kirkcudbright Raingauge,504458,54.84543419,-4.038511682
207,2010-02-01,26.4,Glenmuick No2,367371,56.95161175,-3.141253355
208,2010-02-01,0.0,Urquhart,115406,57.59399199,-4.374371661
209,2010-02-01,24.0,Gairnshiel,115223,57.09199509,-3.165582141
210,2010-02-01,35.8,Cabrach,234176,57.34816,-3.034565786
211,2010-02-01,94.6,Slamannan,464630,55.94205217,-3.832217321
212,2010-02-01,91.4,Kirriereoch,115599,55.15077902,-4.571934377
213,2010-02-01,37.0,Kinmount House,115596,55.01095443,-3.351411196
214,2010-02-01,77.8,Bush,335612,55.86190844,-3.206554074
215,2010-02-01,93.8,Ladyflat Farm,368486,55.7563671174819,-2.36950120236659
216,2010-02-01,53.8,Burnfoot (Hawknest),115523,55.66513433,-3.895712474
217,2010-02-01,0.0,Frenich Farm,552790,56.2269416185393,-4.56047224967827
218,2010-02-01,86.6,Lagafater Lodge,115600,55.04328363,-4.913741812
219,2010-02-01,48.4,Lanark STW,115603,55.67436394,-3.795938206
220,2010-02-01,51.6,Brockhoperig,14987,55.4061285999832,-3.21151338374637
221,2010-02-01,0.0,Cairngorm Raingauge and Snow Scale,523676,57.1277019960426,-3.66295585786453
222,2010-02-01,26.6,Fourmerkland,115565,55.1650788,-3.412506453
223,2010-02-01,0.0,Kirriemuir STW,361048,56.65983513,-2.999773468
224,2010-02-01,0.0,Strowan,361047,56.36918493,-3.92115763
225,2010-02-01,40.8,Gatelawbridge,115568,55.25076797,-3.730683565
226,2010-02-01,84.0,Cheyne,335574,56.97482596,-2.266470239
227,2010-02-01,58.4,Irvine Gailes,115589,55.58754361,-4.663320263
228,2010-02-01,111.2,Inverurie,367365,57.2583172,-2.362253256
229,2010-02-01,0.0,Tomatin No2,564863,57.3381639827187,-4.01336020841456
230,2010-02-01,0.0,Kirkwall,515885,58.9862236273856,-2.9493528634113
231,2010-02-01,29.2,Sluggan,234314,57.2739976291366,-3.87599734801261
232,2010-02-01,99.8,Knockanrock,115363,58.03118174,-5.07294078
233,2010-02-01,18.4,Deskry Shiel,335582,57.18037959,-2.983867766
234,2010-02-01,91.0,Lathro,14902,56.2213192,-3.42872292
235,2010-02-01,30.2,Broadside,335609,56.02806207,-3.978158502
236,2010-02-01,100.0,Langwell Lodge,354621,57.9748238,-5.100589967
237,2010-02-01,0.0,Shotts WWTW,494255,55.81395203,-3.811987501
238,2010-02-01,50.4,Affric Lodge,115301,57.26272622,-5.005979754
239,2010-02-01,47.8,Jedburgh,15006,55.4852912237259,-2.54668703951087
240,2010-02-01,9.8,Dalwhinnie,302120,56.94069555,-4.238639574
241,2010-02-01,18.8,Derry Lodge,454765,57.02065155,-3.58738853
242,2010-02-01,45.0,Keith,367360,57.55084994,-2.952079018
243,2010-02-01,36.8,Capenoch Raingauge,576753,55.2266681707693,-3.8169342186531
244,2010-02-01,105.0,Deanston RG,341338,56.19223931,-4.077181451
245,2010-02-01,0.0,Kinbuck,14890,56.2255551,-3.949530685
246,2010-02-01,31.2,Solwaybank,115647,55.08629786,-3.086937218
247,2010-02-01,50.8,Chesters,15004,55.3786296146422,-2.58960768063178
248,2010-02-01,89.8,Kilphedir,234253,58.1413891058536,-3.70281401936696
249,2010-02-01,93.8,Charr,234183,56.94084906,-2.619402267
250,2010-02-01,0.0,Carmyllie-Hume Farm,577951,56.5746496931231,-2.74133187731856
251,2010-02-01,50.0,Cambo Sands,338380,56.3008799,-2.650067453
252,2010-02-01,92.0,Strathyre,15172,56.32054504,-4.328975608
253,2010-02-01,22.6,Garrogie Lodge,464495,57.17006125,-4.442843871
254,2010-02-01,78.6,Killilan,234252,57.31881832,-5.424835603
255,2010-02-01,67.4,Killermont Raingauge,341380,55.91108458,-4.305014408
256,2010-02-01,50.2,Sorbie,115648,54.79252816,-4.42628864
257,2010-02-01,59.0,Castle Kennedy,116042,54.90675279,-4.944931414
258,2010-02-01,28.2,Kindrogan,14955,56.74926972,-3.544931301
259,2010-02-01,0.0,Unthank Raingauge,506152,55.2428144328791,-2.96407300182699
260,2010-02-01,0.0,Kinghorn Ecology Centre Rain Gauge,473550,56.07462319,-3.193432968
261,2010-02-01,38.6,Garls Craig,301168,55.36599829,-3.616030256
262,2010-02-01,0.0,Quinloch Farm,115638,56.0079586,-4.377500029
263,2010-02-01,0.0,Dunnottar Radio Station,509196,56.9465249628923,-2.21202446021694
264,2010-02-01,41.0,Aberlour,234150,57.48021805,-3.205975095
265,2010-02-01,97.4,Quarry Head,335575,57.63465034,-2.025944065
266,2010-02-01,0.0,Rest and be Thankful,485490,56.22216848,-4.859016846
267,2010-02-01,27.0,Canonbie Raingauge,306455,55.07786221,-2.942088127
268,2010-02-01,74.4,Shiplaw,14975,55.7279691733531,-3.20729143414443
269,2010-02-01,40.0,Prestwick,344764,55.50523784,-4.610940702
270,2010-02-01,68.8,Killin,14933,56.45816211,-4.331876561
271,2010-02-01,91.8,Kinkell Bridge,14968,56.33018709,-3.726992915
272,2010-02-01,0.0,Camphill WTW Raingauge,490984,55.75032761,-4.74461262
273,2010-02-01,44.2,Kingledores,14972,55.54240926,-3.413947163
274,2010-02-01,78.8,Dunglass,15208,55.94267446,-2.382881362
275,2010-03-01,54.4,Inverurie,367365,57.2583172,-2.362253256
276,2010-03-01,35.6,Gella Bridge,14916,56.77535832,-3.027929218
277,2010-03-01,42.0,Colliston,14921,56.61000991,-2.637841019
278,2010-03-01,87.2,Ashgrove,115506,55.66308049,-4.757486092
279,2010-03-01,71.6,Tulchan,115247,57.399186873922,-3.44381881984428
280,2010-03-01,74.8,St Monance,335620,56.2047855,-2.78271364
281,2010-03-01,82.2,Glenquey,464636,56.20739317,-3.642080305
282,2010-03-01,107.4,Torduff,15190,55.8968016,-3.267160193
283,2010-03-01,75.4,Strathkelvin House,300383,55.94300475,-4.172710018
284,2010-03-01,91.8,Fourmerkland,115565,55.1650788,-3.412506453
285,2010-03-01,135.4,Amod Farm,115501,55.35009103,-5.717857841
286,2010-03-01,127.6,Low Creoch,115611,54.90352684,-4.18922643
287,2010-03-01,4.8,Deanston RG,341338,56.19223931,-4.077181451
288,2010-03-01,103.0,Braco (Dunduff),15161,56.28192154,-3.904225732
289,2010-03-01,60.6,Clachan-Seil,115534,56.30375755,-5.601429727
290,2010-03-01,75.2,Irvine Gailes,115589,55.58754361,-4.663320263
291,2010-03-01,0.0,Frenich Farm,552790,56.2269416185393,-4.56047224967827
292,2010-03-01,109.6,Kingledores,14972,55.54240926,-3.413947163
293,2010-03-01,139.8,Drumjohn,115557,55.24992466,-4.32205779
294,2010-03-01,81.0,Burnfoot (Hawknest),115523,55.66513433,-3.895712474
295,2010-03-01,0.0,Kirkwall,515885,58.9862236273856,-2.9493528634113
296,2010-03-01,0.0,Dunnottar Radio Station,509196,56.9465249628923,-2.21202446021694
297,2010-03-01,55.2,Spey Dam,234315,57.01121062,-4.336367491
298,2010-03-01,62.6,Wardend Bridge,234331,57.58239454,-3.608335401
299,2010-03-01,56.0,Broadside,335609,56.02806207,-3.978158502
300,2010-03-01,65.4,Lathro,14902,56.2213192,-3.42872292
301,2010-03-01,0.0,Kinghorn Ecology Centre Rain Gauge,473550,56.07462319,-3.193432968
302,2010-03-01,0.0,Balgray RG,490985,55.73428872,-4.5878755
303,2010-03-01,0.0,Mill Of Gavel,205209,57.55561687,-2.009109628
304,2010-03-01,95.0,Rhian Bridge,115390,58.11499626,-4.439159665
305,2010-03-01,74.2,Whitburn,14881,55.87157334,-3.682936938
306,2010-03-01,0.0,Strowan,361047,56.36918493,-3.92115763
307,2010-03-01,73.0,Polmonthill STW,15187,55.99776804,-3.680208641
308,2010-03-01,108.8,Minnigaff,338429,54.9588823,-4.471659058
309,2010-03-01,115.4,Townfoot (Glencaple),323188,54.99473579,-3.568993615
310,2010-03-01,57.0,Dingwall,115329,57.5999202496956,-4.44699709665912
311,2010-03-01,0.0,Loch Restil,485489,56.23604254,-4.853369348
312,2010-03-01,0.0,Baddinsgill Reservoir,15103,55.7838820984555,-3.39458495099376
313,2010-03-01,39.4,Drummore of Cantray,377134,57.48325079,-4.006176025
314,2010-03-01,101.4,Solwaybank,115647,55.08629786,-3.086937218
315,2010-03-01,64.0,Newton of Falkland,15083,56.25431474,-3.186268594
316,2010-03-01,91.2,Harperrig,15200,55.83652095,-3.435270947
317,2010-03-01,28.2,Tromie Bridge,234327,57.0717185,-3.998638147
318,2010-03-01,108.0,Penwhapple Reservoir,335375,55.23585144,-4.747897404
319,2010-03-01,144.2,Dosmucheran,234202,57.59587318,-5.005770119
320,2010-03-01,38.2,Glenochil,14891,56.14364525,-3.839304837
321,2010-03-01,65.6,North Berwick (Kingston),335621,56.03149667,-2.734270572
322,2010-03-01,119.8,Kirkcaldy,335617,56.11765342,-3.147961765
323,2010-03-01,58.6,Delnashaugh,234198,57.39970792,-3.357845061
324,2010-03-01,70.2,Dallachy No 2,205724,57.66404417,-3.071018416
325,2010-03-01,106.0,Little Assynt,234264,58.1743810886208,-5.15230276806827
326,2010-03-01,198.0,Loch Ailsh Level,354613,58.04827715,-4.855312073
327,2010-03-01,84.8,Dunnswood STW (Cumbernauld),15180,55.97221885,-3.954505606
328,2010-03-01,117.8,Gatelawbridge,115568,55.25076797,-3.730683565
329,2010-03-01,36.0,Nairn Dunbar Golf Course,341224,57.59406094,-3.842759406
330,2010-03-01,0.0,Culloden Battlefield,498341,57.47676464,-4.09126842
331,2010-03-01,104.0,Ingleston Farm,115585,54.81170556,-4.166358356
332,2010-03-01,90.8,Lukeston,327237,55.98447497,-4.240765022
333,2010-03-01,132.4,Lagafater Lodge,115600,55.04328363,-4.913741812
334,2010-03-01,0.0,Kinbuck,14890,56.2255551,-3.949530685
335,2010-03-01,88.8,Beltmoss,327235,55.98678855,-4.056528766
336,2010-03-01,112.8,The Lecht,115244,57.20200168,-3.249607166
337,2010-03-01,48.2,Polhollick,234294,57.05514629,-3.083180673
338,2010-03-01,133.2,Craigdarroch,115541,55.196659,-3.981943267
339,2010-03-01,0.0,Dundreggan Rain Gauge,530175,57.1916154062172,-4.76763419920281
340,2010-03-01,0.0,Cairngorm Raingauge and Snow Scale,523676,57.1277019960426,-3.66295585786453
341,2010-03-01,115.0,Eliock,115562,55.34583036,-3.899113859
342,2010-03-01,93.0,Inchvuilt,115354,57.40830735,-4.957620811
343,2010-03-01,109.2,Upper Monachlye,116007,56.39271229,-4.463706898
344,2010-03-01,136.8,Sgodachail,234305,57.8932766383122,-4.54697639942866
345,2010-03-01,3.2,Dalnamein,14960,56.79925858,-4.053453634
346,2010-03-01,3.0,Knockanrock,115363,58.03118174,-5.07294078
347,2010-03-01,47.8,Cheyne,335574,56.97482596,-2.266470239
348,2010-03-01,155.0,Scardroy No3,347562,57.51892459,-4.985935657
349,2010-03-01,0.0,Quinloch Farm,115638,56.0079586,-4.377500029
350,2010-03-01,127.0,Nunraw Abbey,15215,55.92185875,-2.653499917
351,2010-03-01,96.8,Haddington STW,15226,55.9605092339233,-2.75022457021791
352,2010-03-01,80.0,Inverewe Garden,115356,57.77399694,-5.596995718
353,2010-03-01,77.4,Greenock,327292,55.94370132,-4.723991358
354,2010-03-01,27.4,Biggar Burn,368536,55.6503509335496,-3.54376527843482
355,2010-03-01,0.0,Gifford Rain Gauge,474984,55.89043578,-2.768969478
356,2010-03-01,88.4,Capenoch Raingauge,576753,55.2266681707693,-3.8169342186531
357,2010-03-01,0.0,Glen Ample,335745,56.354577358483,-4.26999369364804
358,2010-03-01,46.0,Alford,234170,57.24230294,-2.717123004
359,2010-03-01,0.0,Lossiemouth,473167,57.71918475,-3.323337879
360,2010-03-01,0.0,Cleuchhead,499810,56.94774412,-2.388756894
361,2010-03-01,26.0,Inverey,115230,56.98569953,-3.500915775
362,2010-03-01,0.0,Baintown Rain-gauge,501947,56.22101614,-3.042679056
363,2010-03-01,139.6,Auchinner,14964,56.31678388,-4.112254665
364,2010-03-01,118.8,Teviothead,14999,55.3422273375472,-2.9364812156604
365,2010-03-01,93.4,Dunglass,15208,55.94267446,-2.382881362
366,2010-03-01,84.8,East Kilbride,115560,55.75477386,-4.171759227
367,2010-03-01,71.4,Creed Bridge,234190,58.20454028,-6.424227928
368,2010-03-01,58.6,Ormiston Mill,15007,55.5449192444277,-2.47331449245388
369,2010-03-01,112.6,Forsinain,115340,58.41100711,-3.873563607
370,2010-03-01,72.4,Flichity,115339,57.33128618,-4.221750189
371,2010-03-01,55.4,Gordon Arms,14984,55.5113722712304,-3.09640690612754
372,2010-03-01,54.8,Invermark,14926,56.91121364,-2.914811966
373,2010-03-01,53.8,Dunbar,15216,56.00371307,-2.52752897
374,2010-03-01,59.4,Rossie Farm,15070,56.29912602,-3.202717904
375,2010-03-01,56.8,Westhill,115250,57.14756943,-2.291989375
376,2010-03-01,53.8,Torwinny,234326,57.52198313,-3.446843553
377,2010-03-01,91.8,Caldercruix STW,115526,55.88933558,-3.904553259
378,2010-03-01,78.2,Harelaw,335614,55.91651494,-3.086776845
379,2010-03-01,26.6,Kindrogan,14955,56.74926972,-3.544931301
380,2010-03-01,65.2,Tobermory,115654,56.62026156,-6.080645248
381,2010-03-01,90.0,Weisdale Mill,116008,60.2593269,-1.288604022
382,2010-03-01,0.0,Annfield,15198,56.06640057,-3.371633207
383,2010-03-01,121.0,Glen Nevis,115343,56.79923208,-5.067543348
384,2010-03-01,53.6,Luffness,14865,56.02022484,-2.821888561
385,2010-03-01,0.0,Bow Burn - WQMS,101227,55.44068058,-4.498633861
386,2010-03-01,101.0,Aberlour,234150,57.48021805,-3.205975095
387,2010-03-01,0.0,Einig Wood,492363,57.94421601,-4.764511928
388,2010-03-01,77.0,Birkie Hue,320371,58.16554218,-6.740713858
389,2010-03-01,0.0,Drum,464646,56.18484641,-3.532323684
390,2010-03-01,73.0,Crichton,15224,55.84509063,-2.988655721
391,2010-03-01,83.4,RhynieGS,368013,57.3317252,-2.828953912
392,2010-03-01,92.6,Canonbie Raingauge,306455,55.07786221,-2.942088127
393,2010-03-01,68.0,Coignafearn,115318,57.23285188,-4.139289943
394,2010-03-01,104.8,Ladyflat Farm,368486,55.7563671174819,-2.36950120236659
395,2010-03-01,62.8,Gogarbank,15196,55.92834002,-3.342742573
396,2010-03-01,153.8,Inveruglas,115588,56.2473573,-4.71287133
397,2010-03-01,151.4,Luib,115376,57.5445048,-5.123945869
398,2010-03-01,145.8,Garls Craig,301168,55.36599829,-3.616030256
399,2010-03-01,145.6,New Kelso,234289,57.42953514,-5.429999168
400,2010-03-01,260.4,Monyquil Farm,133115,55.56419458,-5.271931931
401,2010-03-01,134.4,Loch Droma,115368,57.73309629,-4.936434641
402,2010-03-01,0.0,Balmedie STW,115202,57.25007263,-2.0473803
403,2010-03-01,0.0,Eskdalemuir Observatory,15100,55.3115132595484,-3.20679877544895
404,2010-03-01,111.0,South Moorhouse,115649,55.73251416,-4.350287842
405,2010-03-01,73.4,Ross Priory,133124,56.05257642,-4.55746111
406,2010-03-01,83.4,Halkirk,234231,58.5154974,-3.493004244
407,2010-03-01,51.6,Stonyford,369551,56.84214794,-2.811870347
408,2010-03-01,2.6,Cullen,234192,57.68712295,-2.83323079
409,2010-03-01,104.4,Avochie,234161,57.50564634,-2.782377895
410,2010-03-01,38.6,Mylnefield,335651,56.46017678,-3.075838089
411,2010-03-01,98.6,Dipple,115217,57.61125291,-3.115476523
412,2010-03-01,50.6,Gairnshiel,115223,57.09199509,-3.165582141
413,2010-03-01,0.0,Tarland WWTP,511327,57.1250488281981,-2.8514504640691
414,2010-03-01,92.0,Rhiconich,336217,58.42139172,-4.991227379
415,2010-03-01,166.2,Mill Croft,354623,57.2886568,-7.368331541
416,2010-03-01,63.0,Old Mill of Newton,367364,57.35801578,-2.577016947
417,2010-03-01,41.6,Inshes,336367,57.45203372,-4.184715941
418,2010-03-01,68.4,Saline,15155,56.12224003,-3.585958925
419,2010-03-01,0.0,White Clauchrie,502874,55.1412921,-4.677220867
420,2010-03-01,73.8,Daldowie STW,327232,55.83262494,-4.122714806
421,2010-03-01,18.8,Tillicoultry,15158,56.148819,-3.7458095
422,2010-03-01,0.0,Craigenlee Croft Raingauge,513003,54.8629459170786,-5.07527966446311
423,2010-03-01,0.0,Kirkcudbright Raingauge,504458,54.84543419,-4.038511682
424,2010-03-01,0.0,Shotts WWTW,494255,55.81395203,-3.811987501
425,2010-03-01,73.0,Rothienorman,115239,57.40900118,-2.466784574
426,2010-03-01,164.2,Allnabad,234151,58.3471767644614,-4.64462101395753
427,2010-03-01,0.0,Moar,14949,56.57276553,-4.388958153
428,2010-03-01,119.8,Loch Katrine,14910,56.22701614,-4.436245731
429,2010-03-01,162.8,Coille Mhorgil,115319,57.0643694,-5.134923813
430,2010-03-01,36.8,Allanfearn,115302,57.49914747,-4.151564133
431,2010-03-01,57.2,Langwell Lodge,354621,57.9748238,-5.100589967
432,2010-03-01,53.8,Jedburgh,15006,55.4852912237259,-2.54668703951087
433,2010-03-01,103.0,Saughall,115645,55.60098751,-4.226431521
434,2010-03-01,111.6,Glen Strae,133088,56.42522107,-5.000795867
435,2010-03-01,64.0,Blackhills No 2,115203,57.61017023,-3.222796593
436,2010-03-01,83.8,Glenmavis,327238,55.89359141,-4.013210328
437,2010-03-01,111.0,Dalbeattie STW,115546,54.92152642,-3.821987578
438,2010-03-01,62.2,Hatton No 2,115227,57.42757524,-1.909678484
439,2010-03-01,0.0,Dalblair,538510,55.44485443,-4.1519297
440,2010-03-01,0.0,Nigg Headworks,335797,57.13140193,-2.061103972
441,2010-03-01,80.6,High Corrie (Gartmore),15166,56.1262023,-4.446294544
442,2010-03-01,82.6,Waulkmill Glen,115660,55.79484353,-4.353627607
443,2010-03-01,0.0,Comiston Rain Gauge,525510,55.9101940076868,-3.21598826974242
444,2010-03-01,17.8,Montrose,15078,56.69908575,-2.491155025
445,2010-03-01,71.8,Cambo Sands,338380,56.3008799,-2.650067453
446,2010-03-01,83.4,Lanark STW,115603,55.67436394,-3.795938206
447,2010-03-01,107.6,Muirkirk STW,115622,55.51335703,-4.096604222
448,2010-03-01,95.6,Keith,367360,57.55084994,-2.952079018
449,2010-03-01,97.6,Boreland,115518,55.20254702,-3.320073284
450,2010-03-01,75.6,Glenmore Lodge No 2,115225,57.16421784,-3.677609728
451,2010-03-01,0.0,Rest and be Thankful,485490,56.22216848,-4.859016846
452,2010-03-01,0.0,Hunterston Terminal,469625,55.74447583,-4.86116797
453,2010-03-01,41.0,Letham Grange,338381,56.60403394,-2.609495534
454,2010-03-01,53.8,Sluggan,234314,57.2739976291366,-3.87599734801261
455,2010-03-01,143.2,Braidlie,133144,55.26142915,-2.824951121
456,2010-03-01,0.0,Lochwinnoch,509677,55.7885315233721,-4.61894323306089
457,2010-03-01,50.0,Gargunnock,14892,56.13266077,-4.070571402
458,2010-03-01,121.4,Mouthbridge,15022,55.770128146213,-2.27919326297828
459,2010-03-01,117.2,Meadowfoot,115616,55.40534471,-3.799886702
460,2010-03-01,16.0,Derry Lodge,454765,57.02065155,-3.58738853
461,2010-03-01,90.4,Amlaird,115500,55.66964373,-4.413260863
462,2010-03-01,0.0,Camphill WTW Raingauge,490984,55.75032761,-4.74461262
463,2010-03-01,57.8,Gilston,15114,55.80025456,-2.883463821
464,2010-03-01,72.8,Fife Airport,15151,56.1816502,-3.222449068
465,2010-03-01,96.0,Lyne Station,14974,55.6473318263272,-3.25808918040462
466,2010-03-01,60.0,Cabrach,234176,57.34816,-3.034565786
467,2010-03-01,9.2,Charr,234183,56.94084906,-2.619402267
468,2010-03-01,73.2,Killermont Raingauge,341380,55.91108458,-4.305014408
469,2010-03-01,0.0,Corsock,336434,55.05876816,-3.945715778
470,2010-03-01,0.0,Badbea,518147,57.8624394131174,-5.31874666420385
471,2010-03-01,56.4,Kinkell Bridge,14968,56.33018709,-3.726992915
472,2010-03-01,0.0,Edinburgh RBG (Royal Botanic Garden),15201,55.9666233709368,-3.21231073711968
473,2010-03-01,62.0,Garrogie Lodge,464495,57.17006125,-4.442843871
474,2010-03-01,76.2,Gladhouse Reservoir,15204,55.7784118,-3.117398754
475,2010-03-01,91.0,Slamannan,464630,55.94205217,-3.832217321
476,2010-03-01,70.4,Auchentroig,15163,56.11221933,-4.342412217
477,2010-03-01,201.8,Kirriereoch,115599,55.15077902,-4.571934377
478,2010-03-01,99.4,Picketlaw Reservoir,115632,55.73611493,-4.281846657
479,2010-03-01,0.0,Carmyllie-Hume Farm,577951,56.5746496931231,-2.74133187731856
480,2010-03-01,2.6,Bannockburn,14897,56.09528478,-3.911816854
481,2010-03-01,0.0,Tomatin No2,564863,57.3381639827187,-4.01336020841456
482,2010-03-01,0.0,Unthank Raingauge,506152,55.2428144328791,-2.96407300182699
483,2010-03-01,77.0,Lochindorb North,336847,57.41478835,-3.691385645
484,2010-03-01,129.6,Auchnafree,14952,56.47302976,-3.904678161
485,2010-03-01,266.8,Lecht Weather Station,412495,57.19821668,-3.25888009
486,2010-03-01,50.4,Baluniefield,374852,56.48264025,-2.905576117
487,2010-03-01,0.0,Hazelwood Cottage,115582,56.2671528358581,-5.49466255293018
488,2010-03-01,114.8,Brigton,115521,55.03779638,-4.566314357
489,2010-03-01,143.2,Affric Lodge,115301,57.26272622,-5.005979754
490,2010-03-01,125.6,Dippen,133077,55.58274848,-5.496523588
491,2010-03-01,86.2,Killin,14933,56.45816211,-4.331876561
492,2010-03-01,103.0,Castle Kennedy,116042,54.90675279,-4.944931414
493,2010-03-01,75.8,Strathy Bridge,234319,58.55872143,-4.002604762
494,2010-03-01,94.4,Ettrick Bay,115563,55.85650223,-5.145834193
495,2010-03-01,0.0,Milton of Evelix TBR,494729,57.8912874892072,-4.08416450338909
496,2010-03-01,76.4,Kilphedir,234253,58.1413891058536,-3.70281401936696
497,2010-03-01,142.4,Strathyre,15172,56.32054504,-4.328975608
498,2010-03-01,106.2,Newtonairds,115627,55.10134134,-3.742902191
499,2010-03-01,0.0,Balfron STW,517412,56.0652344105772,-4.33334331797487
500,2010-03-01,94.6,Boleside,533744,55.5916432342931,-2.79887877404223
501,2010-03-01,56.0,Polloch,234295,56.75844885,-5.613663683
502,2010-03-01,77.4,Avonbank,322556,55.66347112,-4.051617294
503,2010-03-01,94.6,Sorbie,115648,54.79252816,-4.42628864
504,2010-03-01,142.0,Abbey St Bathans,15018,55.8532963314108,-2.38744835623352
505,2010-03-01,27.0,Perth Norwich Union,341345,56.38611935,-3.464092253
506,2010-03-01,65.0,Prestwick,344764,55.50523784,-4.610940702
507,2010-03-01,66.6,Esslemont House,115221,57.36510966,-2.112363417
508,2010-03-01,0.0,Muirshiel RG,490986,55.84918458,-4.742664896
509,2010-03-01,33.0,Forter,14948,56.76674681,-3.332205729
510,2010-03-01,59.0,Quarry Head,335575,57.63465034,-2.025944065
511,2010-03-01,67.0,Strathkinness,11368,56.33136897,-2.863918962
512,2010-03-01,126.8,Glenbreck,368490,55.4820219628409,-3.47775472797171
513,2010-03-01,131.0,Killilan,234252,57.31881832,-5.424835603
514,2010-03-01,94.4,Ayton Castle,15132,55.8472764491842,-2.11461102258224
515,2010-03-01,96.8,Hydro Gardens Moffat,115584,55.34214596,-3.452988353
516,2010-03-01,91.2,Corrimony,115322,57.33501743,-4.699729622
517,2010-03-01,79.4,Lingerton,133106,56.01244753,-5.422443562
518,2010-03-01,208.8,Allt Dearg House,115304,57.28490502,-6.187008123
519,2010-03-01,0.0,Comer Farm,552791,56.2015072327063,-4.60131037579935
520,2010-03-01,52.2,Hatton (Perth),335640,56.52513594,-2.648539891
521,2010-03-01,0.0,Laxdale,356217,57.86865846,-6.893581696
522,2010-03-01,100.8,Braeroy Lodge,115315,56.98511362,-4.738585589
523,2010-03-01,117.8,Luss Raingauge,129558,56.09892116,-4.638863963
524,2010-03-01,0.0,Pluscarden Abbey,486057,57.59946107,-3.433170424
525,2010-03-01,61.8,Dalmarnock STW,327234,55.8374507,-4.216965486
526,2010-03-01,35.8,Murton,335650,56.65077608,-2.823539396
527,2010-03-01,68.8,Dunstaffnage,365257,56.45050242,-5.439870612
528,2010-03-01,161.2,Brockhoperig,14987,55.4061285999832,-3.21151338374637
529,2010-03-01,33.4,Forehill,336372,57.50635026,-1.843281987
530,2010-03-01,34.4,Glenmuick No2,367371,56.95161175,-3.141253355
531,2010-03-01,0.0,Urquhart,115406,57.59399199,-4.374371661
532,2010-03-01,61.4,Dalwhinnie,302120,56.94069555,-4.238639574
533,2010-03-01,108.4,Culzean Castle,115544,55.35068095,-4.791520726
534,2010-03-01,100.8,Millport,115618,55.74955539,-4.907441406
535,2010-03-01,104.6,Bush,335612,55.86190844,-3.206554074
536,2010-03-01,78.2,Blackdyke Farm,115516,55.52935031,-4.326283061
537,2010-03-01,112.0,Portling,115634,54.87093795,-3.744601282
538,2010-03-01,72.4,Mongour,115235,57.00199506,-2.388582046
539,2010-03-01,44.4,Waterside Perth,369554,56.89929851,-2.820760629
540,2010-03-01,68.8,Loch Venachar,14898,56.23425763,-4.256866368
541,2010-03-01,84.6,Merton Bank Lochmaben,115617,55.13494009,-3.439865821
542,2010-03-01,103.8,Chesters,15004,55.3786296146422,-2.58960768063178
543,2010-03-01,75.6,Deskry Shiel,335582,57.18037959,-2.983867766
544,2010-03-01,89.4,Durkadale,234207,59.10852817,-3.232172832
545,2010-03-01,68.4,Portmoak,15149,56.19239436,-3.334726298
546,2010-03-01,81.6,Kinmount House,115596,55.01095443,-3.351411196
547,2010-03-01,38.0,Kirriemuir STW,361048,56.65983513,-2.999773468
548,2010-03-01,69.4,Shiplaw,14975,55.7279691733531,-3.20729143414443
549,2010-03-01,0.0,Auchdergannach,491811,57.22063972,-3.651932222
550,2010-04-01,42.2,Forehill,336372,57.50635026,-1.843281987
551,2010-04-01,41.8,Inshes,336367,57.45203372,-4.184715941
552,2010-04-01,113.0,Dunstaffnage,365257,56.45050242,-5.439870612
553,2010-04-01,78.6,Langwell Lodge,354621,57.9748238,-5.100589967
554,2010-04-01,39.0,Lanark STW,115603,55.67436394,-3.795938206
555,2010-04-01,75.4,Birkie Hue,320371,58.16554218,-6.740713858
556,2010-04-01,50.2,Flichity,115339,57.33128618,-4.221750189
557,2010-04-01,45.0,Blackdyke Farm,115516,55.52935031,-4.326283061
558,2010-04-01,25.0,Haddington STW,15226,55.9605092339233,-2.75022457021791
559,2010-04-01,89.8,Rhiconich,336217,58.42139172,-4.991227379
560,2010-04-01,42.0,Nairn Dunbar Golf Course,341224,57.59406094,-3.842759406
561,2010-04-01,10.6,Ormiston Mill,15007,55.5449192444277,-2.47331449245388
562,2010-04-01,42.4,Canonbie Raingauge,306455,55.07786221,-2.942088127
563,2010-04-01,0.0,Hazelwood Cottage,115582,56.2671528358581,-5.49466255293018
564,2010-04-01,44.6,Teviothead,14999,55.3422273375472,-2.9364812156604
565,2010-04-01,14.0,Ayton Castle,15132,55.8472764491842,-2.11461102258224
566,2010-04-01,0.0,Bow Burn - WQMS,101227,55.44068058,-4.498633861
567,2010-04-01,86.0,Gargunnock,14892,56.13266077,-4.070571402
568,2010-04-01,75.6,Creed Bridge,234190,58.20454028,-6.424227928
569,2010-04-01,0.0,Tomatin No2,564863,57.3381639827187,-4.01336020841456
570,2010-04-01,0.0,Einig Wood,492363,57.94421601,-4.764511928
571,2010-04-01,102.2,Scardroy No3,347562,57.51892459,-4.985935657
572,2010-04-01,65.8,Hydro Gardens Moffat,115584,55.34214596,-3.452988353
573,2010-04-01,53.0,Corrimony,115322,57.33501743,-4.699729622
574,2010-04-01,0.0,Frenich Farm,552790,56.2269416185393,-4.56047224967827
575,2010-04-01,97.6,Picketlaw Reservoir,115632,55.73611493,-4.281846657
576,2010-04-01,107.8,Dippen,133077,55.58274848,-5.496523588
577,2010-04-01,56.2,Penwhapple Reservoir,335375,55.23585144,-4.747897404
578,2010-04-01,18.4,Luffness,14865,56.02022484,-2.821888561
579,2010-04-01,89.2,Inverewe Garden,115356,57.77399694,-5.596995718
580,2010-04-01,67.0,Forsinain,115340,58.41100711,-3.873563607
581,2010-04-01,35.8,Dallachy No 2,205724,57.66404417,-3.071018416
582,2010-04-01,30.8,Boleside,533744,55.5916432342931,-2.79887877404223
583,2010-04-01,0.0,Balfron STW,517412,56.0652344105772,-4.33334331797487
584,2010-04-01,50.4,Gilston,15114,55.80025456,-2.883463821
585,2010-04-01,101.0,Brigton,115521,55.03779638,-4.566314357
586,2010-04-01,0.0,Glen Ample,335745,56.354577358483,-4.26999369364804
587,2010-04-01,39.0,Perth Norwich Union,341345,56.38611935,-3.464092253
588,2010-04-01,69.2,Coignafearn,115318,57.23285188,-4.139289943
589,2010-04-01,0.0,Baintown Rain-gauge,501947,56.22101614,-3.042679056
590,2010-04-01,0.0,Comer Farm,552791,56.2015072327063,-4.60131037579935
591,2010-04-01,12.2,Esslemont House,115221,57.36510966,-2.112363417
592,2010-04-01,62.4,Caldercruix STW,115526,55.88933558,-3.904553259
593,2010-04-01,86.6,Lochindorb North,336847,57.41478835,-3.691385645
594,2010-04-01,0.0,Loch Restil,485489,56.23604254,-4.853369348
595,2010-04-01,42.2,Waterside Perth,369554,56.89929851,-2.820760629
596,2010-04-01,36.6,Kirkcaldy,335617,56.11765342,-3.147961765
597,2010-04-01,0.0,Camphill WTW Raingauge,490984,55.75032761,-4.74461262
598,2010-04-01,0.0,Pluscarden Abbey,486057,57.59946107,-3.433170424
599,2010-04-01,0.0,Urquhart,115406,57.59399199,-4.374371661
600,2010-04-01,25.0,Mouthbridge,15022,55.770128146213,-2.27919326297828
601,2010-04-01,192.0,Auchnafree,14952,56.47302976,-3.904678161
602,2010-04-01,50.2,Kingledores,14972,55.54240926,-3.413947163
603,2010-04-01,0.0,Lossiemouth,473167,57.71918475,-3.323337879
604,2010-04-01,53.8,Kinkell Bridge,14968,56.33018709,-3.726992915
605,2010-04-01,0.0,Balgray RG,490985,55.73428872,-4.5878755
606,2010-04-01,62.4,Spey Dam,234315,57.01121062,-4.336367491
607,2010-04-01,49.4,Harperrig,15200,55.83652095,-3.435270947
608,2010-04-01,32.6,Colliston,14921,56.61000991,-2.637841019
609,2010-04-01,110.8,Craigdarroch,115541,55.196659,-3.981943267
610,2010-04-01,39.2,Burnfoot (Hawknest),115523,55.66513433,-3.895712474
611,2010-04-01,0.0,Dunnottar Radio Station,509196,56.9465249628923,-2.21202446021694
612,2010-04-01,0.0,Lochwinnoch,509677,55.7885315233721,-4.61894323306089
613,2010-04-01,63.0,Ingleston Farm,115585,54.81170556,-4.166358356
614,2010-04-01,19.0,Harelaw,335614,55.91651494,-3.086776845
615,2010-04-01,0.0,Corsock,336434,55.05876816,-3.945715778
616,2010-04-01,62.2,Aberlour,234150,57.48021805,-3.205975095
617,2010-04-01,0.0,Comiston Rain Gauge,525510,55.9101940076868,-3.21598826974242
618,2010-04-01,62.2,Stonyford,369551,56.84214794,-2.811870347
619,2010-04-01,97.8,Lagafater Lodge,115600,55.04328363,-4.913741812
620,2010-04-01,0.0,Rest and be Thankful,485490,56.22216848,-4.859016846
621,2010-04-01,0.0,Mill Of Gavel,205209,57.55561687,-2.009109628
622,2010-04-01,65.2,Delnashaugh,234198,57.39970792,-3.357845061
623,2010-04-01,29.4,Strowan,361047,56.36918493,-3.92115763
624,2010-04-01,50.4,Tromie Bridge,234327,57.0717185,-3.998638147
625,2010-04-01,63.0,Durkadale,234207,59.10852817,-3.232172832
626,2010-04-01,0.0,Hunterston Terminal,469625,55.74447583,-4.86116797
627,2010-04-01,48.4,Fourmerkland,115565,55.1650788,-3.412506453
628,2010-04-01,62.8,Amod Farm,115501,55.35009103,-5.717857841
629,2010-04-01,98.0,Loch Venachar,14898,56.23425763,-4.256866368
630,2010-04-01,0.0,White Clauchrie,502874,55.1412921,-4.677220867
631,2010-04-01,94.6,Minnigaff,338429,54.9588823,-4.471659058
632,2010-04-01,293.0,Allt Dearg House,115304,57.28490502,-6.187008123
633,2010-04-01,61.8,Sluggan,234314,57.2739976291366,-3.87599734801261
634,2010-04-01,74.6,Strathy Bridge,234319,58.55872143,-4.002604762
635,2010-04-01,0.0,Craigenlee Croft Raingauge,513003,54.8629459170786,-5.07527966446311
636,2010-04-01,79.2,Brockhoperig,14987,55.4061285999832,-3.21151338374637
637,2010-04-01,0.0,Gifford Rain Gauge,474984,55.89043578,-2.768969478
638,2010-04-01,57.2,Inchvuilt,115354,57.40830735,-4.957620811
639,2010-04-01,26.6,Torduff,15190,55.8968016,-3.267160193
640,2010-04-01,0.0,Shotts WWTW,494255,55.81395203,-3.811987501
641,2010-04-01,70.2,Townfoot (Glencaple),323188,54.99473579,-3.568993615
642,2010-04-01,0.0,Quinloch Farm,115638,56.0079586,-4.377500029
643,2010-04-01,64.6,Blackhills No 2,115203,57.61017023,-3.222796593
644,2010-04-01,112.8,Allnabad,234151,58.3471767644614,-4.64462101395753
645,2010-04-01,54.4,Sgodachail,234305,57.8932766383122,-4.54697639942866
646,2010-04-01,0.0,Milton of Evelix TBR,494729,57.8912874892072,-4.08416450338909
647,2010-04-01,27.6,Cambo Sands,338380,56.3008799,-2.650067453
648,2010-04-01,93.6,Low Creoch,115611,54.90352684,-4.18922643
649,2010-04-01,0.0,Eskdalemuir Observatory,15100,55.3115132595484,-3.20679877544895
650,2010-04-01,90.0,Amlaird,115500,55.66964373,-4.413260863
651,2010-04-01,43.8,Kinmount House,115596,55.01095443,-3.351411196
652,2010-04-01,147.2,Coille Mhorgil,115319,57.0643694,-5.134923813
653,2010-04-01,68.0,Dalmarnock STW,327234,55.8374507,-4.216965486
654,2010-04-01,43.4,Polhollick,234294,57.05514629,-3.083180673
655,2010-04-01,48.2,Halkirk,234231,58.5154974,-3.493004244
656,2010-04-01,167.6,Loch Katrine,14910,56.22701614,-4.436245731
657,2010-04-01,108.8,High Corrie (Gartmore),15166,56.1262023,-4.446294544
658,2010-04-01,22.4,Hatton (Perth),335640,56.52513594,-2.648539891
659,2010-04-01,43.2,Mylnefield,335651,56.46017678,-3.075838089
660,2010-04-01,91.6,Garls Craig,301168,55.36599829,-3.616030256
661,2010-04-01,36.2,Hatton No 2,115227,57.42757524,-1.909678484
662,2010-04-01,45.6,Boreland,115518,55.20254702,-3.320073284
663,2010-04-01,0.0,Dundreggan Rain Gauge,530175,57.1916154062172,-4.76763419920281
664,2010-04-01,66.8,Gladhouse Reservoir,15204,55.7784118,-3.117398754
665,2010-04-01,16.6,Dunbar,15216,56.00371307,-2.52752897
666,2010-04-01,157.6,Polloch,234295,56.75844885,-5.613663683
667,2010-04-01,23.0,North Berwick (Kingston),335621,56.03149667,-2.734270572
668,2010-04-01,91.6,Dosmucheran,234202,57.59587318,-5.005770119
669,2010-04-01,36.0,Glenochil,14891,56.14364525,-3.839304837
670,2010-04-01,62.2,Deskry Shiel,335582,57.18037959,-2.983867766
671,2010-04-01,57.8,Solwaybank,115647,55.08629786,-3.086937218
672,2010-04-01,34.8,Newton of Falkland,15083,56.25431474,-3.186268594
673,2010-04-01,81.4,Little Assynt,234264,58.1743810886208,-5.15230276806827
674,2010-04-01,70.0,Gatelawbridge,115568,55.25076797,-3.730683565
675,2010-04-01,30.2,Alford,234170,57.24230294,-2.717123004
676,2010-04-01,17.0,Jedburgh,15006,55.4852912237259,-2.54668703951087
677,2010-04-01,73.0,Mongour,115235,57.00199506,-2.388582046
678,2010-04-01,173.6,Glen Strae,133088,56.42522107,-5.000795867
679,2010-04-01,50.4,Millport,115618,55.74955539,-4.907441406
680,2010-04-01,63.4,Portling,115634,54.87093795,-3.744601282
681,2010-04-01,136.0,Braeroy Lodge,115315,56.98511362,-4.738585589
682,2010-04-01,33.0,Kirriemuir STW,361048,56.65983513,-2.999773468
683,2010-04-01,58.6,Dalwhinnie,302120,56.94069555,-4.238639574
684,2010-04-01,158.0,Luss Raingauge,129558,56.09892116,-4.638863963
685,2010-04-01,25.2,Murton,335650,56.65077608,-2.823539396
686,2010-04-01,15.2,Chesters,15004,55.3786296146422,-2.58960768063178
687,2010-04-01,64.2,Cabrach,234176,57.34816,-3.034565786
688,2010-04-01,76.8,Glenmuick No2,367371,56.95161175,-3.141253355
689,2010-04-01,0.0,Culloden Battlefield,498341,57.47676464,-4.09126842
690,2010-04-01,0.0,Baddinsgill Reservoir,15103,55.7838820984555,-3.39458495099376
691,2010-04-01,76.8,Saughall,115645,55.60098751,-4.226431521
692,2010-04-01,46.8,Polmonthill STW,15187,55.99776804,-3.680208641
693,2010-04-01,54.2,Wardend Bridge,234331,57.58239454,-3.608335401
694,2010-04-01,0.0,Balmedie STW,115202,57.25007263,-2.0473803
695,2010-04-01,56.6,Ashgrove,115506,55.66308049,-4.757486092
696,2010-04-01,108.0,Glenquey,464636,56.20739317,-3.642080305
697,2010-04-01,71.2,Strathkelvin House,300383,55.94300475,-4.172710018
698,2010-04-01,97.2,Braco (Dunduff),15161,56.28192154,-3.904225732
699,2010-04-01,104.8,Clachan-Seil,115534,56.30375755,-5.601429727
700,2010-04-01,78.2,Tulchan,115247,57.399186873922,-3.44381881984428
701,2010-04-01,37.8,Inverurie,367365,57.2583172,-2.362253256
702,2010-04-01,61.0,Culzean Castle,115544,55.35068095,-4.791520726
703,2010-04-01,95.4,Lukeston,327237,55.98447497,-4.240765022
704,2010-04-01,23.2,Deanston RG,341338,56.19223931,-4.077181451
705,2010-04-01,78.4,Lingerton,133106,56.01244753,-5.422443562
706,2010-04-01,69.6,Sorbie,115648,54.79252816,-4.42628864
707,2010-04-01,57.2,Drummore of Cantray,377134,57.48325079,-4.006176025
708,2010-04-01,92.8,Beltmoss,327235,55.98678855,-4.056528766
709,2010-04-01,32.0,Dalnamein,14960,56.79925858,-4.053453634
710,2010-04-01,84.0,Killilan,234252,57.31881832,-5.424835603
711,2010-04-01,28.2,Cheyne,335574,56.97482596,-2.266470239
712,2010-04-01,93.6,Knockanrock,115363,58.03118174,-5.07294078
713,2010-04-01,105.8,Loch Ailsh Level,354613,58.04827715,-4.855312073
714,2010-04-01,62.8,The Lecht,115244,57.20200168,-3.249607166
715,2010-04-01,75.6,Eliock,115562,55.34583036,-3.899113859
716,2010-04-01,78.4,Dunnswood STW (Cumbernauld),15180,55.97221885,-3.954505606
717,2010-04-01,0.0,Cairngorm Raingauge and Snow Scale,523676,57.1277019960426,-3.66295585786453
718,2010-04-01,0.0,Kinbuck,14890,56.2255551,-3.949530685
719,2010-04-01,82.0,Meadowfoot,115616,55.40534471,-3.799886702
720,2010-04-01,91.0,Glenmore Lodge No 2,115225,57.16421784,-3.677609728
721,2010-04-01,70.8,Garrogie Lodge,464495,57.17006125,-4.442843871
722,2010-04-01,47.6,Irvine Gailes,115589,55.58754361,-4.663320263
723,2010-04-01,128.0,Kirriereoch,115599,55.15077902,-4.571934377
724,2010-04-01,70.8,Ettrick Bay,115563,55.85650223,-5.145834193
725,2010-04-01,105.0,Affric Lodge,115301,57.26272622,-5.005979754
726,2010-04-01,113.2,Killin,14933,56.45816211,-4.331876561
727,2010-04-01,68.6,Slamannan,464630,55.94205217,-3.832217321
728,2010-04-01,52.8,Forter,14948,56.76674681,-3.332205729
729,2010-04-01,14.6,Edinburgh RBG (Royal Botanic Garden),15201,55.9666233709368,-3.21231073711968
730,2010-04-01,34.2,Strathkinness,11368,56.33136897,-2.863918962
731,2010-04-01,21.8,Abbey St Bathans,15018,55.8532963314108,-2.38744835623352
732,2010-04-01,74.4,Glenbreck,368490,55.4820219628409,-3.47775472797171
733,2010-04-01,160.0,Strathyre,15172,56.32054504,-4.328975608
734,2010-04-01,77.2,Auchentroig,15163,56.11221933,-4.342412217
735,2010-04-01,47.4,Prestwick,344764,55.50523784,-4.610940702
736,2010-04-01,0.0,Unthank Raingauge,506152,55.2428144328791,-2.96407300182699
737,2010-04-01,52.4,Lecht Weather Station,412495,57.19821668,-3.25888009
738,2010-04-01,0.0,Muirshiel RG,490986,55.84918458,-4.742664896
739,2010-04-01,35.8,Letham Grange,338381,56.60403394,-2.609495534
740,2010-04-01,56.2,Kilphedir,234253,58.1413891058536,-3.70281401936696
741,2010-04-01,139.2,Laxdale,356217,57.86865846,-6.893581696
742,2010-04-01,36.2,Baluniefield,374852,56.48264025,-2.905576117
743,2010-04-01,62.2,Castle Kennedy,116042,54.90675279,-4.944931414
744,2010-04-01,77.8,Rhian Bridge,115390,58.11499626,-4.439159665
745,2010-04-01,102.8,Dalbeattie STW,115546,54.92152642,-3.821987578
746,2010-04-01,48.8,Montrose,15078,56.69908575,-2.491155025
747,2010-04-01,96.8,Waulkmill Glen,115660,55.79484353,-4.353627607
748,2010-04-01,54.2,Merton Bank Lochmaben,115617,55.13494009,-3.439865821
749,2010-04-01,76.4,Newtonairds,115627,55.10134134,-3.742902191
750,2010-04-01,0.0,Auchdergannach,491811,57.22063972,-3.651932222
751,2010-04-01,56.0,Shiplaw,14975,55.7279691733531,-3.20729143414443
752,2010-04-01,40.0,Portmoak,15149,56.19239436,-3.334726298
753,2010-04-01,35.0,Keith,367360,57.55084994,-2.952079018
754,2010-04-01,52.2,Gairnshiel,115223,57.09199509,-3.165582141
755,2010-04-01,35.8,Westhill,115250,57.14756943,-2.291989375
756,2010-04-01,0.0,Carmyllie-Hume Farm,577951,56.5746496931231,-2.74133187731856
757,2010-04-01,23.4,Dunglass,15208,55.94267446,-2.382881362
758,2010-04-01,61.8,Killermont Raingauge,341380,55.91108458,-4.305014408
759,2010-04-01,53.4,Avonbank,322556,55.66347112,-4.051617294
760,2010-04-01,0.0,Badbea,518147,57.8624394131174,-5.31874666420385
761,2010-04-01,59.6,Braidlie,133144,55.26142915,-2.824951121
762,2010-04-01,59.0,Glenmavis,327238,55.89359141,-4.013210328
763,2010-04-01,25.6,Nigg Headworks,335797,57.13140193,-2.061103972
764,2010-04-01,0.0,Dalblair,538510,55.44485443,-4.1519297
765,2010-04-01,51.0,Derry Lodge,454765,57.02065155,-3.58738853
766,2010-04-01,3.0,Bannockburn,14897,56.09528478,-3.911816854
767,2010-04-01,58.6,Whitburn,14881,55.87157334,-3.682936938
768,2010-04-01,101.4,Torwinny,234326,57.52198313,-3.446843553
769,2010-04-01,44.6,Invermark,14926,56.91121364,-2.914811966
770,2010-04-01,0.0,Cleuchhead,499810,56.94774412,-2.388756894
771,2010-04-01,36.6,Allanfearn,115302,57.49914747,-4.151564133
772,2010-04-01,112.8,South Moorhouse,115649,55.73251416,-4.350287842
773,2010-04-01,52.4,Muirkirk STW,115622,55.51335703,-4.096604222
774,2010-04-01,69.0,Capenoch Raingauge,576753,55.2266681707693,-3.8169342186531
775,2010-04-01,101.4,Ross Priory,133124,56.05257642,-4.55746111
776,2010-04-01,178.6,Inveruglas,115588,56.2473573,-4.71287133
777,2010-04-01,59.0,Biggar Burn,368536,55.6503509335496,-3.54376527843482
778,2010-04-01,21.2,Gogarbank,15196,55.92834002,-3.342742573
779,2010-04-01,33.2,Avochie,234161,57.50564634,-2.782377895
780,2010-04-01,24.8,Cullen,234192,57.68712295,-2.83323079
781,2010-04-01,27.8,Lyne Station,14974,55.6473318263272,-3.25808918040462
782,2010-04-01,168.2,Auchinner,14964,56.31678388,-4.112254665
783,2010-04-01,40.0,Crichton,15224,55.84509063,-2.988655721
784,2010-04-01,0.0,Annfield,15198,56.06640057,-3.371633207
785,2010-04-01,94.4,Loch Droma,115368,57.73309629,-4.936434641
786,2010-04-01,179.2,Glen Nevis,115343,56.79923208,-5.067543348
787,2010-04-01,94.4,Greenock,327292,55.94370132,-4.723991358
788,2010-04-01,37.8,Dipple,115217,57.61125291,-3.115476523
789,2010-04-01,0.0,Tarland WWTP,511327,57.1250488281981,-2.8514504640691
790,2010-04-01,30.4,Bush,335612,55.86190844,-3.206554074
791,2010-04-01,0.0,Kinghorn Ecology Centre Rain Gauge,473550,56.07462319,-3.193432968
792,2010-04-01,91.8,Charr,234183,56.94084906,-2.619402267
793,2010-04-01,18.6,Ladyflat Farm,368486,55.7563671174819,-2.36950120236659
794,2010-04-01,34.2,Old Mill of Newton,367364,57.35801578,-2.577016947
795,2010-04-01,51.6,Saline,15155,56.12224003,-3.585958925
796,2010-04-01,57.6,Lathro,14902,56.2213192,-3.42872292
797,2010-04-01,26.0,St Monance,335620,56.2047855,-2.78271364
798,2010-04-01,75.8,Daldowie STW,327232,55.83262494,-4.122714806
799,2010-04-01,54.2,Rossie Farm,15070,56.29912602,-3.202717904
800,2010-04-01,26.4,Tillicoultry,15158,56.148819,-3.7458095
801,2010-04-01,33.4,Rothienorman,115239,57.40900118,-2.466784574
802,2010-04-01,40.2,Fife Airport,15151,56.1816502,-3.222449068
803,2010-04-01,40.4,Gordon Arms,14984,55.5113722712304,-3.09640690612754
804,2010-04-01,29.6,Moar,14949,56.57276553,-4.388958153
805,2010-04-01,110.2,Monyquil Farm,133115,55.56419458,-5.271931931
806,2010-04-01,0.0,Drum,464646,56.18484641,-3.532323684
807,2010-04-01,95.0,East Kilbride,115560,55.75477386,-4.171759227
808,2010-04-01,0.0,Kirkcudbright Raingauge,504458,54.84543419,-4.038511682
809,2010-04-01,36.0,Nunraw Abbey,15215,55.92185875,-2.653499917
810,2010-04-01,75.6,Weisdale Mill,116008,60.2593269,-1.288604022
811,2010-04-01,0.0,Kirkwall,515885,58.9862236273856,-2.9493528634113
812,2010-04-01,155.2,Upper Monachlye,116007,56.39271229,-4.463706898
813,2010-04-01,110.2,Tobermory,115654,56.62026156,-6.080645248
814,2010-04-01,60.0,Gella Bridge,14916,56.77535832,-3.027929218
815,2010-04-01,58.8,Inverey,115230,56.98569953,-3.500915775
816,2010-04-01,101.0,Luib,115376,57.5445048,-5.123945869
817,2010-04-01,40.2,RhynieGS,368013,57.3317252,-2.828953912
818,2010-04-01,58.0,Dingwall,115329,57.5999202496956,-4.44699709665912
819,2010-04-01,142.4,New Kelso,234289,57.42953514,-5.429999168
820,2010-04-01,63.4,Kindrogan,14955,56.74926972,-3.544931301
821,2010-04-01,89.4,Drumjohn,115557,55.24992466,-4.32205779
822,2010-04-01,99.2,Broadside,335609,56.02806207,-3.978158502
823,2010-04-01,31.6,Quarry Head,335575,57.63465034,-2.025944065
824,2010-04-01,34.2,Mill Croft,354623,57.2886568,-7.368331541
825,2010-05-01,37.8,Brockhoperig,14987,55.4061285999832,-3.21151338374637
826,2010-05-01,0.0,Hazelwood Cottage,115582,56.2671528358581,-5.49466255293018
827,2010-05-01,62.8,Charr,234183,56.94084906,-2.619402267
828,2010-05-01,45.0,Letham Grange,338381,56.60403394,-2.609495534
829,2010-05-01,0.0,Rest and be Thankful,485490,56.22216848,-4.859016846
830,2010-05-01,71.4,Keith,367360,57.55084994,-2.952079018
831,2010-05-01,0.0,Badbea,518147,57.8624394131174,-5.31874666420385
832,2010-05-01,0.0,Hunterston Terminal,469625,55.74447583,-4.86116797
833,2010-05-01,0.0,Baintown Rain-gauge,501947,56.22101614,-3.042679056
834,2010-05-01,42.6,High Corrie (Gartmore),15166,56.1262023,-4.446294544
835,2010-05-01,44.4,Newtonairds,115627,55.10134134,-3.742902191
836,2010-05-01,33.0,Capenoch Raingauge,576753,55.2266681707693,-3.8169342186531
837,2010-05-01,24.2,Inverey,115230,56.98569953,-3.500915775
838,2010-05-01,28.4,Killermont Raingauge,341380,55.91108458,-4.305014408
839,2010-05-01,87.6,Lecht Weather Station,412495,57.19821668,-3.25888009
840,2010-05-01,0.0,Carmyllie-Hume Farm,577951,56.5746496931231,-2.74133187731856
841,2010-05-01,25.8,Auchentroig,15163,56.11221933,-4.342412217
842,2010-05-01,32.6,Forter,14948,56.76674681,-3.332205729
843,2010-05-01,41.0,Dunbar,15216,56.00371307,-2.52752897
844,2010-05-01,32.2,Strathyre,15172,56.32054504,-4.328975608
845,2010-05-01,42.6,Kindrogan,14955,56.74926972,-3.544931301
846,2010-05-01,80.4,Langwell Lodge,354621,57.9748238,-5.100589967
847,2010-05-01,36.2,Nunraw Abbey,15215,55.92185875,-2.653499917
848,2010-05-01,32.4,Canonbie Raingauge,306455,55.07786221,-2.942088127
849,2010-05-01,56.6,Lochindorb North,336847,57.41478835,-3.691385645
850,2010-05-01,44.4,Invermark,14926,56.91121364,-2.914811966
851,2010-05-01,43.6,Dalnamein,14960,56.79925858,-4.053453634
852,2010-05-01,54.2,Brigton,115521,55.03779638,-4.566314357
853,2010-05-01,0.0,Unthank Raingauge,506152,55.2428144328791,-2.96407300182699
854,2010-05-01,30.0,Dalmarnock STW,327234,55.8374507,-4.216965486
855,2010-05-01,39.6,Kinkell Bridge,14968,56.33018709,-3.726992915
856,2010-05-01,31.4,Strowan,361047,56.36918493,-3.92115763
857,2010-05-01,0.0,Bow Burn - WQMS,101227,55.44068058,-4.498633861
858,2010-05-01,39.8,Castle Kennedy,116042,54.90675279,-4.944931414
859,2010-05-01,54.0,Forsinain,115340,58.41100711,-3.873563607
860,2010-05-01,45.0,Weisdale Mill,116008,60.2593269,-1.288604022
861,2010-05-01,40.4,Ayton Castle,15132,55.8472764491842,-2.11461102258224
862,2010-05-01,37.0,Auchinner,14964,56.31678388,-4.112254665
863,2010-05-01,0.0,Comiston Rain Gauge,525510,55.9101940076868,-3.21598826974242
864,2010-05-01,47.2,Kilphedir,234253,58.1413891058536,-3.70281401936696
865,2010-05-01,59.4,Killilan,234252,57.31881832,-5.424835603
866,2010-05-01,45.4,Nigg Headworks,335797,57.13140193,-2.061103972
867,2010-05-01,23.8,Ormiston Mill,15007,55.5449192444277,-2.47331449245388
868,2010-05-01,0.0,Balfron STW,517412,56.0652344105772,-4.33334331797487
869,2010-05-01,45.4,Garrogie Lodge,464495,57.17006125,-4.442843871
870,2010-05-01,42.8,Amlaird,115500,55.66964373,-4.413260863
871,2010-05-01,58.6,Edinburgh RBG (Royal Botanic Garden),15201,55.9666233709368,-3.21231073711968
872,2010-05-01,0.0,Drum,464646,56.18484641,-3.532323684
873,2010-05-01,52.2,Coignafearn,115318,57.23285188,-4.139289943
874,2010-05-01,0.0,Milton of Evelix TBR,494729,57.8912874892072,-4.08416450338909
875,2010-05-01,32.0,Montrose,15078,56.69908575,-2.491155025
876,2010-05-01,26.0,Killin,14933,56.45816211,-4.331876561
877,2010-05-01,29.4,Kingledores,14972,55.54240926,-3.413947163
878,2010-05-01,58.0,Boreland,115518,55.20254702,-3.320073284
879,2010-05-01,24.6,Irvine Gailes,115589,55.58754361,-4.663320263
880,2010-05-01,97.0,Laxdale,356217,57.86865846,-6.893581696
881,2010-05-01,40.8,Whitburn,14881,55.87157334,-3.682936938
882,2010-05-01,79.8,Rhiconich,336217,58.42139172,-4.991227379
883,2010-05-01,44.2,Braidlie,133144,55.26142915,-2.824951121
884,2010-05-01,35.2,Broadside,335609,56.02806207,-3.978158502
885,2010-05-01,51.2,Dippen,133077,55.58274848,-5.496523588
886,2010-05-01,0.0,Tomatin No2,564863,57.3381639827187,-4.01336020841456
887,2010-05-01,0.0,Cleuchhead,499810,56.94774412,-2.388756894
888,2010-05-01,40.8,Inverewe Garden,115356,57.77399694,-5.596995718
889,2010-05-01,49.4,Gilston,15114,55.80025456,-2.883463821
890,2010-05-01,0.0,Quinloch Farm,115638,56.0079586,-4.377500029
891,2010-05-01,0.0,Eskdalemuir Observatory,15100,55.3115132595484,-3.20679877544895
892,2010-05-01,64.6,Durkadale,234207,59.10852817,-3.232172832
893,2010-05-01,93.8,Loch Ailsh Level,354613,58.04827715,-4.855312073
894,2010-05-01,61.4,Inverurie,367365,57.2583172,-2.362253256
895,2010-05-01,42.2,Ingleston Farm,115585,54.81170556,-4.166358356
896,2010-05-01,59.6,Quarry Head,335575,57.63465034,-2.025944065
897,2010-05-01,35.2,Inchvuilt,115354,57.40830735,-4.957620811
898,2010-05-01,35.0,Ross Priory,133124,56.05257642,-4.55746111
899,2010-05-01,0.0,Kinghorn Ecology Centre Rain Gauge,473550,56.07462319,-3.193432968
900,2010-05-01,21.6,Tillicoultry,15158,56.148819,-3.7458095
901,2010-05-01,0.0,Baddinsgill Reservoir,15103,55.7838820984555,-3.39458495099376
902,2010-05-01,30.0,Garls Craig,301168,55.36599829,-3.616030256
903,2010-05-01,80.2,Loch Droma,115368,57.73309629,-4.936434641
904,2010-05-01,54.2,Cheyne,335574,56.97482596,-2.266470239
905,2010-05-01,0.0,Kinbuck,14890,56.2255551,-3.949530685
906,2010-05-01,0.0,Loch Restil,485489,56.23604254,-4.853369348
907,2010-05-01,41.6,Loch Katrine,14910,56.22701614,-4.436245731
908,2010-05-01,0.0,Shotts WWTW,494255,55.81395203,-3.811987501
909,2010-05-01,57.0,Minnigaff,338429,54.9588823,-4.471659058
910,2010-05-01,53.4,Clachan-Seil,115534,56.30375755,-5.601429727
911,2010-05-01,46.2,Braeroy Lodge,115315,56.98511362,-4.738585589
912,2010-05-01,55.4,Amod Farm,115501,55.35009103,-5.717857841
913,2010-05-01,17.8,Spey Dam,234315,57.01121062,-4.336367491
914,2010-05-01,24.4,Ashgrove,115506,55.66308049,-4.757486092
915,2010-05-01,36.2,Gella Bridge,14916,56.77535832,-3.027929218
916,2010-05-01,28.8,Deanston RG,341338,56.19223931,-4.077181451
917,2010-05-01,24.2,Lathro,14902,56.2213192,-3.42872292
918,2010-05-01,13.4,Tromie Bridge,234327,57.0717185,-3.998638147
919,2010-05-01,18.4,Dingwall,115329,57.5999202496956,-4.44699709665912
920,2010-05-01,62.0,New Kelso,234289,57.42953514,-5.429999168
921,2010-05-01,60.8,RhynieGS,368013,57.3317252,-2.828953912
922,2010-05-01,41.0,Colliston,14921,56.61000991,-2.637841019
923,2010-05-01,29.8,North Berwick (Kingston),335621,56.03149667,-2.734270572
924,2010-05-01,54.0,Wardend Bridge,234331,57.58239454,-3.608335401
925,2010-05-01,59.6,Tulchan,115247,57.399186873922,-3.44381881984428
926,2010-05-01,32.0,Annfield,15198,56.06640057,-3.371633207
927,2010-05-01,37.0,Shiplaw,14975,55.7279691733531,-3.20729143414443
928,2010-05-01,49.0,Fourmerkland,115565,55.1650788,-3.412506453
929,2010-05-01,20.2,Chesters,15004,55.3786296146422,-2.58960768063178
930,2010-05-01,0.0,Gifford Rain Gauge,474984,55.89043578,-2.768969478
931,2010-05-01,80.8,Mongour,115235,57.00199506,-2.388582046
932,2010-05-01,17.4,Boleside,533744,55.5916432342931,-2.79887877404223
933,2010-05-01,31.4,East Kilbride,115560,55.75477386,-4.171759227
934,2010-05-01,50.2,Sorbie,115648,54.79252816,-4.42628864
935,2010-05-01,66.4,Forehill,336372,57.50635026,-1.843281987
936,2010-05-01,3.6,Lingerton,133106,56.01244753,-5.422443562
937,2010-05-01,43.2,Inshes,336367,57.45203372,-4.184715941
938,2010-05-01,70.8,Old Mill of Newton,367364,57.35801578,-2.577016947
939,2010-05-01,32.8,Rothienorman,115239,57.40900118,-2.466784574
940,2010-05-01,0.0,Auchdergannach,491811,57.22063972,-3.651932222
941,2010-05-01,30.6,Loch Venachar,14898,56.23425763,-4.256866368
942,2010-05-01,0.0,Camphill WTW Raingauge,490984,55.75032761,-4.74461262
943,2010-05-01,37.4,Dunglass,15208,55.94267446,-2.382881362
944,2010-05-01,39.4,Monyquil Farm,133115,55.56419458,-5.271931931
945,2010-05-01,32.4,Eliock,115562,55.34583036,-3.899113859
946,2010-05-01,39.6,Braco (Dunduff),15161,56.28192154,-3.904225732
947,2010-05-01,43.4,Solwaybank,115647,55.08629786,-3.086937218
948,2010-05-01,0.0,Urquhart,115406,57.59399199,-4.374371661
949,2010-05-01,28.0,Newton of Falkland,15083,56.25431474,-3.186268594
950,2010-05-01,106.8,Little Assynt,234264,58.1743810886208,-5.15230276806827
951,2010-05-01,26.0,Penwhapple Reservoir,335375,55.23585144,-4.747897404
952,2010-05-01,34.4,Moar,14949,56.57276553,-4.388958153
953,2010-05-01,42.2,Nairn Dunbar Golf Course,341224,57.59406094,-3.842759406
954,2010-05-01,42.8,Deskry Shiel,335582,57.18037959,-2.983867766
955,2010-05-01,38.2,Hydro Gardens Moffat,115584,55.34214596,-3.452988353
956,2010-05-01,27.6,Jedburgh,15006,55.4852912237259,-2.54668703951087
957,2010-05-01,0.0,Dunnottar Radio Station,509196,56.9465249628923,-2.21202446021694
958,2010-05-01,42.8,South Moorhouse,115649,55.73251416,-4.350287842
959,2010-05-01,58.4,Aberlour,234150,57.48021805,-3.205975095
960,2010-05-01,32.8,Gatelawbridge,115568,55.25076797,-3.730683565
961,2010-05-01,29.4,Coille Mhorgil,115319,57.0643694,-5.134923813
962,2010-05-01,52.0,Sgodachail,234305,57.8932766383122,-4.54697639942866
963,2010-05-01,68.8,Esslemont House,115221,57.36510966,-2.112363417
964,2010-05-01,433.4,Inveruglas,115588,56.2473573,-4.71287133
965,2010-05-01,52.0,Drummore of Cantray,377134,57.48325079,-4.006176025
966,2010-05-01,33.0,Perth Norwich Union,341345,56.38611935,-3.464092253
967,2010-05-01,98.8,The Lecht,115244,57.20200168,-3.249607166
968,2010-05-01,19.8,Fife Airport,15151,56.1816502,-3.222449068
969,2010-05-01,44.2,Portling,115634,54.87093795,-3.744601282
970,2010-05-01,33.6,Daldowie STW,327232,55.83262494,-4.122714806
971,2010-05-01,56.4,Glen Strae,133088,56.42522107,-5.000795867
972,2010-05-01,35.0,Saline,15155,56.12224003,-3.585958925
973,2010-05-01,42.2,Dunstaffnage,365257,56.45050242,-5.439870612
974,2010-05-01,28.2,Murton,335650,56.65077608,-2.823539396
975,2010-05-01,46.6,Kirriemuir STW,361048,56.65983513,-2.999773468
976,2010-05-01,0.0,Pluscarden Abbey,486057,57.59946107,-3.433170424
977,2010-05-01,57.8,Mylnefield,335651,56.46017678,-3.075838089
978,2010-05-01,80.2,Low Creoch,115611,54.90352684,-4.18922643
979,2010-05-01,37.0,Harelaw,335614,55.91651494,-3.086776845
980,2010-05-01,40.6,Mill Croft,354623,57.2886568,-7.368331541
981,2010-05-01,58.8,St Monance,335620,56.2047855,-2.78271364
982,2010-05-01,25.2,Gordon Arms,14984,55.5113722712304,-3.09640690612754
983,2010-05-01,39.6,Sluggan,234314,57.2739976291366,-3.87599734801261
984,2010-05-01,41.8,Gairnshiel,115223,57.09199509,-3.165582141
985,2010-05-01,68.0,Allnabad,234151,58.3471767644614,-4.64462101395753
986,2010-05-01,45.6,Luss Raingauge,129558,56.09892116,-4.638863963
987,2010-05-01,79.8,Allt Dearg House,115304,57.28490502,-6.187008123
988,2010-05-01,26.6,Burnfoot (Hawknest),115523,55.66513433,-3.895712474
989,2010-05-01,80.2,Alford,234170,57.24230294,-2.717123004
990,2010-05-01,26.2,Lukeston,327237,55.98447497,-4.240765022
991,2010-05-01,54.4,Dosmucheran,234202,57.59587318,-5.005770119
992,2010-05-01,34.0,Derry Lodge,454765,57.02065155,-3.58738853
993,2010-05-01,22.0,Glenochil,14891,56.14364525,-3.839304837
994,2010-05-01,0.0,Kirkcudbright Raingauge,504458,54.84543419,-4.038511682
995,2010-05-01,23.4,Gargunnock,14892,56.13266077,-4.070571402
996,2010-05-01,44.8,Flichity,115339,57.33128618,-4.221750189
997,2010-05-01,30.2,Polhollick,234294,57.05514629,-3.083180673
998,2010-05-01,36.8,Gladhouse Reservoir,15204,55.7784118,-3.117398754
999,2010-05-01,37.0,Blackdyke Farm,115516,55.52935031,-4.326283061
1000,2010-05-01,48.6,Townfoot (Glencaple),323188,54.99473579,-3.568993615
1001,2010-05-01,48.0,Dipple,115217,57.61125291,-3.115476523
1002,2010-05-01,0.0,Mill Of Gavel,205209,57.55561687,-2.009109628
1003,2010-05-01,0.0,Culloden Battlefield,498341,57.47676464,-4.09126842
1004,2010-05-01,44.6,Merton Bank Lochmaben,115617,55.13494009,-3.439865821
1005,2010-05-01,33.0,Drumjohn,115557,55.24992466,-4.32205779
1006,2010-05-01,42.0,Stonyford,369551,56.84214794,-2.811870347
1007,2010-05-01,47.8,Crichton,15224,55.84509063,-2.988655721
1008,2010-05-01,38.6,Kinmount House,115596,55.01095443,-3.351411196
1009,2010-05-01,23.8,Millport,115618,55.74955539,-4.907441406
1010,2010-05-01,35.8,Glenmuick No2,367371,56.95161175,-3.141253355
1011,2010-05-01,27.4,Strathkelvin House,300383,55.94300475,-4.172710018
1012,2010-05-01,47.0,Hatton (Perth),335640,56.52513594,-2.648539891
1013,2010-05-01,36.0,Muirkirk STW,115622,55.51335703,-4.096604222
1014,2010-05-01,55.8,Scardroy No3,347562,57.51892459,-4.985935657
1015,2010-05-01,29.4,Culzean Castle,115544,55.35068095,-4.791520726
1016,2010-05-01,0.0,Tarland WWTP,511327,57.1250488281981,-2.8514504640691
1017,2010-05-01,44.4,Waterside Perth,369554,56.89929851,-2.820760629
1018,2010-05-01,0.0,Lossiemouth,473167,57.71918475,-3.323337879
1019,2010-05-01,64.4,Delnashaugh,234198,57.39970792,-3.357845061
1020,2010-05-01,56.8,Lagafater Lodge,115600,55.04328363,-4.913741812
1021,2010-05-01,83.4,Halkirk,234231,58.5154974,-3.493004244
1022,2010-05-01,48.4,Torduff,15190,55.8968016,-3.267160193
1023,2010-05-01,75.8,Glenquey,464636,56.20739317,-3.642080305
1024,2010-05-01,40.4,Craigdarroch,115541,55.196659,-3.981943267
1025,2010-05-01,21.6,Polmonthill STW,15187,55.99776804,-3.680208641
1026,2010-05-01,57.0,Luib,115376,57.5445048,-5.123945869
1027,2010-05-01,0.0,Dundreggan Rain Gauge,530175,57.1916154062172,-4.76763419920281
1028,2010-05-01,42.6,Balmedie STW,115202,57.25007263,-2.0473803
1029,2010-05-01,36.2,Rhian Bridge,115390,58.11499626,-4.439159665
1030,2010-05-01,29.4,Allanfearn,115302,57.49914747,-4.151564133
1031,2010-05-01,0.0,Comer Farm,552791,56.2015072327063,-4.60131037579935
1032,2010-05-01,68.6,Torwinny,234326,57.52198313,-3.446843553
1033,2010-05-01,39.6,Saughall,115645,55.60098751,-4.226431521
1034,2010-05-01,0.0,Balgray RG,490985,55.73428872,-4.5878755
1035,2010-05-01,97.0,Knockanrock,115363,58.03118174,-5.07294078
1036,2010-05-01,22.0,Beltmoss,327235,55.98678855,-4.056528766
1037,2010-05-01,42.8,Gogarbank,15196,55.92834002,-3.342742573
1038,2010-05-01,0.0,Frenich Farm,552790,56.2269416185393,-4.56047224967827
1039,2010-05-01,51.6,Birkie Hue,320371,58.16554218,-6.740713858
1040,2010-05-01,31.2,Kirkcaldy,335617,56.11765342,-3.147961765
1041,2010-05-01,22.6,Dunnswood STW (Cumbernauld),15180,55.97221885,-3.954505606
1042,2010-05-01,0.0,Cairngorm Raingauge and Snow Scale,523676,57.1277019960426,-3.66295585786453
1043,2010-05-01,62.6,Avochie,234161,57.50564634,-2.782377895
1044,2010-05-01,42.0,Harperrig,15200,55.83652095,-3.435270947
1045,2010-05-01,45.2,Cullen,234192,57.68712295,-2.83323079
1046,2010-05-01,41.6,Rossie Farm,15070,56.29912602,-3.202717904
1047,2010-05-01,36.2,Ladyflat Farm,368486,55.7563671174819,-2.36950120236659
1048,2010-05-01,42.8,Glenbreck,368490,55.4820219628409,-3.47775472797171
1049,2010-05-01,57.8,Polloch,234295,56.75844885,-5.613663683
1050,2010-05-01,43.4,Bush,335612,55.86190844,-3.206554074
1051,2010-05-01,0.0,Muirshiel RG,490986,55.84918458,-4.742664896
1052,2010-05-01,13.2,Corrimony,115322,57.33501743,-4.699729622
1053,2010-05-01,17.2,Meadowfoot,115616,55.40534471,-3.799886702
1054,2010-05-01,62.2,Strathkinness,11368,56.33136897,-2.863918962
1055,2010-05-01,3.8,Westhill,115250,57.14756943,-2.291989375
1056,2010-05-01,73.0,Creed Bridge,234190,58.20454028,-6.424227928
1057,2010-05-01,0.0,Craigenlee Croft Raingauge,513003,54.8629459170786,-5.07527966446311
1058,2010-05-01,46.6,Dalbeattie STW,115546,54.92152642,-3.821987578
1059,2010-05-01,52.2,Abbey St Bathans,15018,55.8532963314108,-2.38744835623352
1060,2010-05-01,26.2,Waulkmill Glen,115660,55.79484353,-4.353627607
1061,2010-05-01,42.4,Glen Nevis,115343,56.79923208,-5.067543348
1062,2010-05-01,2.6,Upper Monachlye,116007,56.39271229,-4.463706898
1063,2010-05-01,92.8,Cambo Sands,338380,56.3008799,-2.650067453
1064,2010-05-01,23.4,Slamannan,464630,55.94205217,-3.832217321
1065,2010-05-01,53.4,Baluniefield,374852,56.48264025,-2.905576117
1066,2010-05-01,34.4,Lanark STW,115603,55.67436394,-3.795938206
1067,2010-05-01,44.2,Blackhills No 2,115203,57.61017023,-3.222796593
1068,2010-05-01,0.0,Dalblair,538510,55.44485443,-4.1519297
1069,2010-05-01,64.4,Strathy Bridge,234319,58.55872143,-4.002604762
1070,2010-05-01,26.0,Teviothead,14999,55.3422273375472,-2.9364812156604
1071,2010-05-01,35.6,Picketlaw Reservoir,115632,55.73611493,-4.281846657
1072,2010-05-01,38.6,Affric Lodge,115301,57.26272622,-5.005979754
1073,2010-05-01,0.0,Glen Ample,335745,56.354577358483,-4.26999369364804
1074,2010-05-01,0.0,Kirkwall,515885,58.9862236273856,-2.9493528634113
1075,2010-05-01,29.2,Ettrick Bay,115563,55.85650223,-5.145834193
1076,2010-05-01,0.0,Einig Wood,492363,57.94421601,-4.764511928
1077,2010-05-01,39.2,Haddington STW,15226,55.9605092339233,-2.75022457021791
1078,2010-05-01,37.4,Auchnafree,14952,56.47302976,-3.904678161
1079,2010-05-01,32.0,Caldercruix STW,115526,55.88933558,-3.904553259
1080,2010-05-01,20.4,Prestwick,344764,55.50523784,-4.610940702
1081,2010-05-01,41.0,Dallachy No 2,205724,57.66404417,-3.071018416
1082,2010-05-01,63.2,Kirriereoch,115599,55.15077902,-4.571934377
1083,2010-05-01,106.4,Hatton No 2,115227,57.42757524,-1.909678484
1084,2010-05-01,27.2,Luffness,14865,56.02022484,-2.821888561
1085,2010-05-01,29.8,Dalwhinnie,302120,56.94069555,-4.238639574
1086,2010-05-01,2.6,Bannockburn,14897,56.09528478,-3.911816854
1087,2010-05-01,20.2,Greenock,327292,55.94370132,-4.723991358
1088,2010-05-01,27.0,Avonbank,322556,55.66347112,-4.051617294
1089,2010-05-01,0.0,Lochwinnoch,509677,55.7885315233721,-4.61894323306089
1090,2010-05-01,0.0,Lyne Station,14974,55.6473318263272,-3.25808918040462
1091,2010-05-01,33.8,Biggar Burn,368536,55.6503509335496,-3.54376527843482
1092,2010-05-01,27.8,Portmoak,15149,56.19239436,-3.334726298
1093,2010-05-01,39.0,Tobermory,115654,56.62026156,-6.080645248
1094,2010-05-01,0.0,White Clauchrie,502874,55.1412921,-4.677220867
1095,2010-05-01,27.8,Glenmavis,327238,55.89359141,-4.013210328
1096,2010-05-01,35.2,Mouthbridge,15022,55.770128146213,-2.27919326297828
1097,2010-05-01,58.2,Glenmore Lodge No 2,115225,57.16421784,-3.677609728
1098,2010-05-01,65.6,Cabrach,234176,57.34816,-3.034565786
1099,2010-05-01,0.0,Corsock,336434,55.05876816,-3.945715778
1100,2010-06-01,40.4,Broadside,335609,56.02806207,-3.978158502
1101,2010-06-01,37.2,RhynieGS,368013,57.3317252,-2.828953912
1102,2010-06-01,35.6,Luib,115376,57.5445048,-5.123945869
1103,2010-06-01,23.2,Westhill,115250,57.14756943,-2.291989375
1104,2010-06-01,17.0,Luffness,14865,56.02022484,-2.821888561
1105,2010-06-01,27.8,Muirkirk STW,115622,55.51335703,-4.096604222
1106,2010-06-01,27.0,Avochie,234161,57.50564634,-2.782377895
1107,2010-06-01,36.4,Dunnswood STW (Cumbernauld),15180,55.97221885,-3.954505606
1108,2010-06-01,42.8,Annfield,15198,56.06640057,-3.371633207
1109,2010-06-01,22.2,Nunraw Abbey,15215,55.92185875,-2.653499917
1110,2010-06-01,0.0,Cleuchhead,499810,56.94774412,-2.388756894
1111,2010-06-01,39.0,Dipple,115217,57.61125291,-3.115476523
1112,2010-06-01,30.0,Dingwall,115329,57.5999202496956,-4.44699709665912
1113,2010-06-01,57.4,Invermark,14926,56.91121364,-2.914811966
1114,2010-06-01,26.0,New Kelso,234289,57.42953514,-5.429999168
1115,2010-06-01,52.6,Auchinner,14964,56.31678388,-4.112254665
1116,2010-06-01,32.6,Strowan,361047,56.36918493,-3.92115763
1117,2010-06-01,23.0,Dunglass,15208,55.94267446,-2.382881362
1118,2010-06-01,34.8,East Kilbride,115560,55.75477386,-4.171759227
1119,2010-06-01,33.4,Saline,15155,56.12224003,-3.585958925
1120,2010-06-01,57.6,Glen Nevis,115343,56.79923208,-5.067543348
1121,2010-06-01,18.4,Weisdale Mill,116008,60.2593269,-1.288604022
1122,2010-06-01,6.4,Quarry Head,335575,57.63465034,-2.025944065
1123,2010-06-01,17.8,Dunbar,15216,56.00371307,-2.52752897
1124,2010-06-01,16.4,Loch Droma,115368,57.73309629,-4.936434641
1125,2010-06-01,78.2,Greenock,327292,55.94370132,-4.723991358
1126,2010-06-01,43.2,Tobermory,115654,56.62026156,-6.080645248
1127,2010-06-01,25.0,Gella Bridge,14916,56.77535832,-3.027929218
1128,2010-06-01,0.0,Quinloch Farm,115638,56.0079586,-4.377500029
1129,2010-06-01,26.8,Haddington STW,15226,55.9605092339233,-2.75022457021791
1130,2010-06-01,48.4,Coignafearn,115318,57.23285188,-4.139289943
1131,2010-06-01,26.8,Rossie Farm,15070,56.29912602,-3.202717904
1132,2010-06-01,44.6,Edinburgh RBG (Royal Botanic Garden),15201,55.9666233709368,-3.21231073711968
1133,2010-06-01,0.0,Upper Monachlye,116007,56.39271229,-4.463706898
1134,2010-06-01,34.0,Cullen,234192,57.68712295,-2.83323079
1135,2010-06-01,48.2,Allanfearn,115302,57.49914747,-4.151564133
1136,2010-06-01,54.8,Moar,14949,56.57276553,-4.388958153
1137,2010-06-01,25.0,Fife Airport,15151,56.1816502,-3.222449068
1138,2010-06-01,31.4,Crichton,15224,55.84509063,-2.988655721
1139,2010-06-01,0.0,Bow Burn - WQMS,101227,55.44068058,-4.498633861
1140,2010-06-01,44.8,Old Mill of Newton,367364,57.35801578,-2.577016947
1141,2010-06-01,56.8,Inverey,115230,56.98569953,-3.500915775
1142,2010-06-01,37.0,South Moorhouse,115649,55.73251416,-4.350287842
1143,2010-06-01,21.4,Ladyflat Farm,368486,55.7563671174819,-2.36950120236659
1144,2010-06-01,35.8,Polloch,234295,56.75844885,-5.613663683
1145,2010-06-01,41.4,Kindrogan,14955,56.74926972,-3.544931301
1146,2010-06-01,33.4,Gogarbank,15196,55.92834002,-3.342742573
1147,2010-06-01,18.2,Capenoch Raingauge,576753,55.2266681707693,-3.8169342186531
1148,2010-06-01,31.8,Dalnamein,14960,56.79925858,-4.053453634
1149,2010-06-01,0.0,Kirkcudbright Raingauge,504458,54.84543419,-4.038511682
1150,2010-06-01,3.0,Drum,464646,56.18484641,-3.532323684
1151,2010-06-01,61.2,Inveruglas,115588,56.2473573,-4.71287133
1152,2010-06-01,0.0,Dalblair,538510,55.44485443,-4.1519297
1153,2010-06-01,31.0,Lyne Station,14974,55.6473318263272,-3.25808918040462
1154,2010-06-01,26.6,Killermont Raingauge,341380,55.91108458,-4.305014408
1155,2010-06-01,37.0,Glenmavis,327238,55.89359141,-4.013210328
1156,2010-06-01,0.0,Nigg Headworks,335797,57.13140193,-2.061103972
1157,2010-06-01,43.8,Monyquil Farm,133115,55.56419458,-5.271931931
1158,2010-06-01,20.2,Abbey St Bathans,15018,55.8532963314108,-2.38744835623352
1159,2010-06-01,18.2,St Monance,335620,56.2047855,-2.78271364
1160,2010-06-01,18.8,Gordon Arms,14984,55.5113722712304,-3.09640690612754
1161,2010-06-01,27.0,Biggar Burn,368536,55.6503509335496,-3.54376527843482
1162,2010-06-01,21.6,Rothienorman,115239,57.40900118,-2.466784574
1163,2010-06-01,46.6,Creed Bridge,234190,58.20454028,-6.424227928
1164,2010-06-01,44.8,Ross Priory,133124,56.05257642,-4.55746111
1165,2010-06-01,37.6,Dosmucheran,234202,57.59587318,-5.005770119
1166,2010-06-01,34.8,Daldowie STW,327232,55.83262494,-4.122714806
1167,2010-06-01,24.0,Rhian Bridge,115390,58.11499626,-4.439159665
1168,2010-06-01,0.0,Badbea,518147,57.8624394131174,-5.31874666420385
1169,2010-06-01,0.0,Unthank Raingauge,506152,55.2428144328791,-2.96407300182699
1170,2010-06-01,18.6,Letham Grange,338381,56.60403394,-2.609495534
1171,2010-06-01,34.2,Keith,367360,57.55084994,-2.952079018
1172,2010-06-01,23.4,Avonbank,322556,55.66347112,-4.051617294
1173,2010-06-01,28.8,Portmoak,15149,56.19239436,-3.334726298
1174,2010-06-01,29.8,Shiplaw,14975,55.7279691733531,-3.20729143414443
1175,2010-06-01,36.2,Glenmore Lodge No 2,115225,57.16421784,-3.677609728
1176,2010-06-01,79.2,Laxdale,356217,57.86865846,-6.893581696
1177,2010-06-01,21.0,Merton Bank Lochmaben,115617,55.13494009,-3.439865821
1178,2010-06-01,52.8,Gairnshiel,115223,57.09199509,-3.165582141
1179,2010-06-01,0.0,Lingerton,133106,56.01244753,-5.422443562
1180,2010-06-01,32.6,Bush,335612,55.86190844,-3.206554074
1181,2010-06-01,44.0,Braidlie,133144,55.26142915,-2.824951121
1182,2010-06-01,31.2,Sorbie,115648,54.79252816,-4.42628864
1183,2010-06-01,0.0,Auchdergannach,491811,57.22063972,-3.651932222
1184,2010-06-01,50.8,Garrogie Lodge,464495,57.17006125,-4.442843871
1185,2010-06-01,28.6,Slamannan,464630,55.94205217,-3.832217321
1186,2010-06-01,45.0,Newtonairds,115627,55.10134134,-3.742902191
1187,2010-06-01,34.0,Cabrach,234176,57.34816,-3.034565786
1188,2010-06-01,25.2,Baluniefield,374852,56.48264025,-2.905576117
1189,2010-06-01,52.8,Brigton,115521,55.03779638,-4.566314357
1190,2010-06-01,55.8,Lecht Weather Station,412495,57.19821668,-3.25888009
1191,2010-06-01,63.0,Killin,14933,56.45816211,-4.331876561
1192,2010-06-01,36.4,Auchentroig,15163,56.11221933,-4.342412217
1193,2010-06-01,21.8,Prestwick,344764,55.50523784,-4.610940702
1194,2010-06-01,0.0,Carmyllie-Hume Farm,577951,56.5746496931231,-2.74133187731856
1195,2010-06-01,45.2,Kirriereoch,115599,55.15077902,-4.571934377
1196,2010-06-01,30.4,Ettrick Bay,115563,55.85650223,-5.145834193
1197,2010-06-01,34.8,Affric Lodge,115301,57.26272622,-5.005979754
1198,2010-06-01,28.4,Forter,14948,56.76674681,-3.332205729
1199,2010-06-01,20.0,Montrose,15078,56.69908575,-2.491155025
1200,2010-06-01,39.4,Castle Kennedy,116042,54.90675279,-4.944931414
1201,2010-06-01,26.4,Whitburn,14881,55.87157334,-3.682936938
1202,2010-06-01,21.6,Strathkinness,11368,56.33136897,-2.863918962
1203,2010-06-01,60.6,Strathyre,15172,56.32054504,-4.328975608
1204,2010-06-01,0.0,Muirshiel RG,490986,55.84918458,-4.742664896
1205,2010-06-01,27.6,Kilphedir,234253,58.1413891058536,-3.70281401936696
1206,2010-06-01,34.4,Killilan,234252,57.31881832,-5.424835603
1207,2010-06-01,29.6,Meadowfoot,115616,55.40534471,-3.799886702
1208,2010-06-01,27.8,Waulkmill Glen,115660,55.79484353,-4.353627607
1209,2010-06-01,34.0,Dalbeattie STW,115546,54.92152642,-3.821987578
1210,2010-06-01,46.8,Drummore of Cantray,377134,57.48325079,-4.006176025
1211,2010-06-01,22.6,Culzean Castle,115544,55.35068095,-4.791520726
1212,2010-06-01,32.4,Mongour,115235,57.00199506,-2.388582046
1213,2010-06-01,0.0,Kinbuck,14890,56.2255551,-3.949530685
1214,2010-06-01,21.4,Eliock,115562,55.34583036,-3.899113859
1215,2010-06-01,31.4,Torwinny,234326,57.52198313,-3.446843553
1216,2010-06-01,49.8,Knockanrock,115363,58.03118174,-5.07294078
1217,2010-06-01,40.0,Lathro,14902,56.2213192,-3.42872292
1218,2010-06-01,8.0,Beltmoss,327235,55.98678855,-4.056528766
1219,2010-06-01,33.0,Inverurie,367365,57.2583172,-2.362253256
1220,2010-06-01,45.4,Charr,234183,56.94084906,-2.619402267
1221,2010-06-01,42.2,Ashgrove,115506,55.66308049,-4.757486092
1222,2010-06-01,0.0,Einig Wood,492363,57.94421601,-4.764511928
1223,2010-06-01,0.0,Cairngorm Raingauge and Snow Scale,523676,57.1277019960426,-3.66295585786453
1224,2010-06-01,42.2,Tulchan,115247,57.399186873922,-3.44381881984428
1225,2010-06-01,27.4,Braco (Dunduff),15161,56.28192154,-3.904225732
1226,2010-06-01,41.2,Strathkelvin House,300383,55.94300475,-4.172710018
1227,2010-06-01,24.2,Irvine Gailes,115589,55.58754361,-4.663320263
1228,2010-06-01,25.8,Deanston RG,341338,56.19223931,-4.077181451
1229,2010-06-01,43.6,Glenbreck,368490,55.4820219628409,-3.47775472797171
1230,2010-06-01,26.0,Drumjohn,115557,55.24992466,-4.32205779
1231,2010-06-01,23.0,Clachan-Seil,115534,56.30375755,-5.601429727
1232,2010-06-01,25.6,Polmonthill STW,15187,55.99776804,-3.680208641
1233,2010-06-01,41.4,Wardend Bridge,234331,57.58239454,-3.608335401
1234,2010-06-01,70.0,Glenquey,464636,56.20739317,-3.642080305
1235,2010-06-01,0.0,Balmedie STW,115202,57.25007263,-2.0473803
1236,2010-06-01,16.0,Hatton (Perth),335640,56.52513594,-2.648539891
1237,2010-06-01,1.0,Bannockburn,14897,56.09528478,-3.911816854
1238,2010-06-01,0.0,Camphill WTW Raingauge,490984,55.75032761,-4.74461262
1239,2010-06-01,20.4,Cheyne,335574,56.97482596,-2.266470239
1240,2010-06-01,50.2,Glenmuick No2,367371,56.95161175,-3.141253355
1241,2010-06-01,41.4,Deskry Shiel,335582,57.18037959,-2.983867766
1242,2010-06-01,35.0,Chesters,15004,55.3786296146422,-2.58960768063178
1243,2010-06-01,58.4,Luss Raingauge,129558,56.09892116,-4.638863963
1244,2010-06-01,26.2,Solwaybank,115647,55.08629786,-3.086937218
1245,2010-06-01,51.6,Braeroy Lodge,115315,56.98511362,-4.738585589
1246,2010-06-01,37.6,Dalwhinnie,302120,56.94069555,-4.238639574
1247,2010-06-01,30.0,Kirriemuir STW,361048,56.65983513,-2.999773468
1248,2010-06-01,19.0,Portling,115634,54.87093795,-3.744601282
1249,2010-06-01,48.4,Glen Strae,133088,56.42522107,-5.000795867
1250,2010-06-01,14.6,Jedburgh,15006,55.4852912237259,-2.54668703951087
1251,2010-06-01,0.0,Kirkwall,515885,58.9862236273856,-2.9493528634113
1252,2010-06-01,0.0,Tarland WWTP,511327,57.1250488281981,-2.8514504640691
1253,2010-06-01,30.6,Saughall,115645,55.60098751,-4.226431521
1254,2010-06-01,39.0,Gatelawbridge,115568,55.25076797,-3.730683565
1255,2010-06-01,30.2,Birkie Hue,320371,58.16554218,-6.740713858
1256,2010-06-01,38.2,Mill Croft,354623,57.2886568,-7.368331541
1257,2010-06-01,22.2,Forsinain,115340,58.41100711,-3.873563607
1258,2010-06-01,41.2,Alford,234170,57.24230294,-2.717123004
1259,2010-06-01,0.0,Baddinsgill Reservoir,15103,55.7838820984555,-3.39458495099376
1260,2010-06-01,44.4,Spey Dam,234315,57.01121062,-4.336367491
1261,2010-06-01,23.4,Glenochil,14891,56.14364525,-3.839304837
1262,2010-06-01,0.0,Culloden Battlefield,498341,57.47676464,-4.09126842
1263,2010-06-01,63.6,Derry Lodge,454765,57.02065155,-3.58738853
1264,2010-06-01,25.0,North Berwick (Kingston),335621,56.03149667,-2.734270572
1265,2010-06-01,32.6,Lukeston,327237,55.98447497,-4.240765022
1266,2010-06-01,57.2,Little Assynt,234264,58.1743810886208,-5.15230276806827
1267,2010-06-01,24.8,Murton,335650,56.65077608,-2.823539396
1268,2010-06-01,25.6,Tillicoultry,15158,56.148819,-3.7458095
1269,2010-06-01,41.6,Waterside Perth,369554,56.89929851,-2.820760629
1270,2010-06-01,0.0,Hunterston Terminal,469625,55.74447583,-4.86116797
1271,2010-06-01,0.0,Balgray RG,490985,55.73428872,-4.5878755
1272,2010-06-01,23.4,Newton of Falkland,15083,56.25431474,-3.186268594
1273,2010-06-01,25.2,Brockhoperig,14987,55.4061285999832,-3.21151338374637
1274,2010-06-01,39.8,Amod Farm,115501,55.35009103,-5.717857841
1275,2010-06-01,0.0,Frenich Farm,552790,56.2269416185393,-4.56047224967827
1276,2010-06-01,0.0,Mill Of Gavel,205209,57.55561687,-2.009109628
1277,2010-06-01,17.8,Boreland,115518,55.20254702,-3.320073284
1278,2010-06-01,0.0,Eskdalemuir Observatory,15100,55.3115132595484,-3.20679877544895
1279,2010-06-01,0.0,Lochwinnoch,509677,55.7885315233721,-4.61894323306089
1280,2010-06-01,0.0,Kinghorn Ecology Centre Rain Gauge,473550,56.07462319,-3.193432968
1281,2010-06-01,0.0,Dundreggan Rain Gauge,530175,57.1916154062172,-4.76763419920281
1282,2010-06-01,30.2,Gilston,15114,55.80025456,-2.883463821
1283,2010-06-01,0.0,Corsock,336434,55.05876816,-3.945715778
1284,2010-06-01,30.0,High Corrie (Gartmore),15166,56.1262023,-4.446294544
1285,2010-06-01,22.0,Strathy Bridge,234319,58.55872143,-4.002604762
1286,2010-06-01,33.8,Harelaw,335614,55.91651494,-3.086776845
1287,2010-06-01,5.4,Halkirk,234231,58.5154974,-3.493004244
1288,2010-06-01,24.4,Gladhouse Reservoir,15204,55.7784118,-3.117398754
1289,2010-06-01,26.2,Burnfoot (Hawknest),115523,55.66513433,-3.895712474
1290,2010-06-01,0.0,Shotts WWTW,494255,55.81395203,-3.811987501
1291,2010-06-01,19.6,Cambo Sands,338380,56.3008799,-2.650067453
1292,2010-06-01,32.0,Kinkell Bridge,14968,56.33018709,-3.726992915
1293,2010-06-01,45.2,Ingleston Farm,115585,54.81170556,-4.166358356
1294,2010-06-01,31.8,Hatton No 2,115227,57.42757524,-1.909678484
1295,2010-06-01,0.0,Rest and be Thankful,485490,56.22216848,-4.859016846
1296,2010-06-01,32.8,Torduff,15190,55.8968016,-3.267160193
1297,2010-06-01,0.0,Milton of Evelix TBR,494729,57.8912874892072,-4.08416450338909
1298,2010-06-01,47.4,Flichity,115339,57.33128618,-4.221750189
1299,2010-06-01,40.0,Garls Craig,301168,55.36599829,-3.616030256
1300,2010-06-01,65.0,Loch Katrine,14910,56.22701614,-4.436245731
1301,2010-06-01,38.8,Amlaird,115500,55.66964373,-4.413260863
1302,2010-06-01,61.0,Coille Mhorgil,115319,57.0643694,-5.134923813
1303,2010-06-01,30.8,Stonyford,369551,56.84214794,-2.811870347
1304,2010-06-01,23.8,Mylnefield,335651,56.46017678,-3.075838089
1305,2010-06-01,56.6,The Lecht,115244,57.20200168,-3.249607166
1306,2010-06-01,34.0,Sluggan,234314,57.2739976291366,-3.87599734801261
1307,2010-06-01,65.8,Loch Ailsh Level,354613,58.04827715,-4.855312073
1308,2010-06-01,0.0,Comer Farm,552791,56.2015072327063,-4.60131037579935
1309,2010-06-01,0.0,Pluscarden Abbey,486057,57.59946107,-3.433170424
1310,2010-06-01,34.0,Blackdyke Farm,115516,55.52935031,-4.326283061
1311,2010-06-01,38.2,Scardroy No3,347562,57.51892459,-4.985935657
1312,2010-06-01,39.8,Harperrig,15200,55.83652095,-3.435270947
1313,2010-06-01,0.0,Loch Restil,485489,56.23604254,-4.853369348
1314,2010-06-01,27.8,Dalmarnock STW,327234,55.8374507,-4.216965486
1315,2010-06-01,27.6,Kirkcaldy,335617,56.11765342,-3.147961765
1316,2010-06-01,24.2,Penwhapple Reservoir,335375,55.23585144,-4.747897404
1317,2010-06-01,12.2,Forehill,336372,57.50635026,-1.843281987
1318,2010-06-01,17.8,Fourmerkland,115565,55.1650788,-3.412506453
1319,2010-06-01,16.2,Hydro Gardens Moffat,115584,55.34214596,-3.452988353
1320,2010-06-01,36.0,Dallachy No 2,205724,57.66404417,-3.071018416
1321,2010-06-01,16.8,Mouthbridge,15022,55.770128146213,-2.27919326297828
1322,2010-06-01,31.0,Townfoot (Glencaple),323188,54.99473579,-3.568993615
1323,2010-06-01,25.6,Inchvuilt,115354,57.40830735,-4.957620811
1324,2010-06-01,12.6,Boleside,533744,55.5916432342931,-2.79887877404223
1325,2010-06-01,39.6,Aberlour,234150,57.48021805,-3.205975095
1326,2010-06-01,25.0,Durkadale,234207,59.10852817,-3.232172832
1327,2010-06-01,23.8,Millport,115618,55.74955539,-4.907441406
1328,2010-06-01,46.2,Loch Venachar,14898,56.23425763,-4.256866368
1329,2010-06-01,55.2,Tromie Bridge,234327,57.0717185,-3.998638147
1330,2010-06-01,41.0,Delnashaugh,234198,57.39970792,-3.357845061
1331,2010-06-01,38.8,Polhollick,234294,57.05514629,-3.083180673
1332,2010-06-01,56.0,Lagafater Lodge,115600,55.04328363,-4.913741812
1333,2010-06-01,32.4,Kingledores,14972,55.54240926,-3.413947163
1334,2010-06-01,22.2,Craigdarroch,115541,55.196659,-3.981943267
1335,2010-06-01,52.6,Allt Dearg House,115304,57.28490502,-6.187008123
1336,2010-06-01,0.0,Lossiemouth,473167,57.71918475,-3.323337879
1337,2010-06-01,24.0,Kinmount House,115596,55.01095443,-3.351411196
1338,2010-06-01,51.2,Minnigaff,338429,54.9588823,-4.471659058
1339,2010-06-01,0.0,Comiston Rain Gauge,525510,55.9101940076868,-3.21598826974242
1340,2010-06-01,22.4,Colliston,14921,56.61000991,-2.637841019
1341,2010-06-01,29.6,Dunstaffnage,365257,56.45050242,-5.439870612
1342,2010-06-01,24.0,Blackhills No 2,115203,57.61017023,-3.222796593
1343,2010-06-01,0.0,Urquhart,115406,57.59399199,-4.374371661
1344,2010-06-01,30.8,Sgodachail,234305,57.8932766383122,-4.54697639942866
1345,2010-06-01,0.0,Glen Ample,335745,56.354577358483,-4.26999369364804
1346,2010-06-01,35.2,Rhiconich,336217,58.42139172,-4.991227379
1347,2010-06-01,89.2,Langwell Lodge,354621,57.9748238,-5.100589967
1348,2010-06-01,33.8,Lochindorb North,336847,57.41478835,-3.691385645
1349,2010-06-01,0.0,Baintown Rain-gauge,501947,56.22101614,-3.042679056
1350,2010-06-01,54.4,Inshes,336367,57.45203372,-4.184715941
1351,2010-06-01,40.0,Corrimony,115322,57.33501743,-4.699729622
1352,2010-06-01,31.2,Caldercruix STW,115526,55.88933558,-3.904553259
1353,2010-06-01,23.8,Perth Norwich Union,341345,56.38611935,-3.464092253
1354,2010-06-01,20.8,Lanark STW,115603,55.67436394,-3.795938206
1355,2010-06-01,17.4,Teviothead,14999,55.3422273375472,-2.9364812156604
1356,2010-06-01,36.6,Auchnafree,14952,56.47302976,-3.904678161
1357,2010-06-01,7.6,Ormiston Mill,15007,55.5449192444277,-2.47331449245388
1358,2010-06-01,0.0,Craigenlee Croft Raingauge,513003,54.8629459170786,-5.07527966446311
1359,2010-06-01,20.8,Esslemont House,115221,57.36510966,-2.112363417
1360,2010-06-01,40.4,Dippen,133077,55.58274848,-5.496523588
1361,2010-06-01,0.0,Balfron STW,517412,56.0652344105772,-4.33334331797487
1362,2010-06-01,27.6,Picketlaw Reservoir,115632,55.73611493,-4.281846657
1363,2010-06-01,0.0,Tomatin No2,564863,57.3381639827187,-4.01336020841456
1364,2010-06-01,0.0,White Clauchrie,502874,55.1412921,-4.677220867
1365,2010-06-01,38.0,Gargunnock,14892,56.13266077,-4.070571402
1366,2010-06-01,0.0,Dunnottar Radio Station,509196,56.9465249628923,-2.21202446021694
1367,2010-06-01,10.4,Canonbie Raingauge,306455,55.07786221,-2.942088127
1368,2010-06-01,108.2,Low Creoch,115611,54.90352684,-4.18922643
1369,2010-06-01,0.0,Gifford Rain Gauge,474984,55.89043578,-2.768969478
1370,2010-06-01,27.6,Inverewe Garden,115356,57.77399694,-5.596995718
1371,2010-06-01,13.2,Ayton Castle,15132,55.8472764491842,-2.11461102258224
1372,2010-06-01,0.0,Hazelwood Cottage,115582,56.2671528358581,-5.49466255293018
1373,2010-06-01,28.2,Nairn Dunbar Golf Course,341224,57.59406094,-3.842759406
1374,2010-06-01,41.6,Allnabad,234151,58.3471767644614,-4.64462101395753
1375,2010-07-01,0.0,Baddinsgill Reservoir,15103,55.7838820984555,-3.39458495099376
1376,2010-07-01,165.2,Solwaybank,115647,55.08629786,-3.086937218
1377,2010-07-01,163.8,Kinmount House,115596,55.01095443,-3.351411196
1378,2010-07-01,117.8,Dallachy No 2,205724,57.66404417,-3.071018416
1379,2010-07-01,103.4,St Monance,335620,56.2047855,-2.78271364
1380,2010-07-01,151.8,Waulkmill Glen,115660,55.79484353,-4.353627607
1381,2010-07-01,213.4,Auchnafree,14952,56.47302976,-3.904678161
1382,2010-07-01,214.0,Dippen,133077,55.58274848,-5.496523588
1383,2010-07-01,118.6,Kirriemuir STW,361048,56.65983513,-2.999773468
1384,2010-07-01,110.2,Dalwhinnie,302120,56.94069555,-4.238639574
1385,2010-07-01,136.0,Portling,115634,54.87093795,-3.744601282
1386,2010-07-01,115.0,Lanark STW,115603,55.67436394,-3.795938206
1387,2010-07-01,184.2,Braeroy Lodge,115315,56.98511362,-4.738585589
1388,2010-07-01,149.6,Lathro,14902,56.2213192,-3.42872292
1389,2010-07-01,151.4,Hydro Gardens Moffat,115584,55.34214596,-3.452988353
1390,2010-07-01,152.8,Brigton,115521,55.03779638,-4.566314357
1391,2010-07-01,101.6,Durkadale,234207,59.10852817,-3.232172832
1392,2010-07-01,63.0,Forter,14948,56.76674681,-3.332205729
1393,2010-07-01,31.2,Glenochil,14891,56.14364525,-3.839304837
1394,2010-07-01,148.4,Affric Lodge,115301,57.26272622,-5.005979754
1395,2010-07-01,232.0,Luss Raingauge,129558,56.09892116,-4.638863963
1396,2010-07-01,160.6,Glenmuick No2,367371,56.95161175,-3.141253355
1397,2010-07-01,111.8,Chesters,15004,55.3786296146422,-2.58960768063178
1398,2010-07-01,0.0,Tomatin No2,564863,57.3381639827187,-4.01336020841456
1399,2010-07-01,0.0,Muirshiel RG,490986,55.84918458,-4.742664896
1400,2010-07-01,0.0,Carmyllie-Hume Farm,577951,56.5746496931231,-2.74133187731856
1401,2010-07-01,257.8,Glen Strae,133088,56.42522107,-5.000795867
1402,2010-07-01,0.0,Urquhart,115406,57.59399199,-4.374371661
1403,2010-07-01,103.2,Lecht Weather Station,412495,57.19821668,-3.25888009
1404,2010-07-01,89.0,North Berwick (Kingston),335621,56.03149667,-2.734270572
1405,2010-07-01,95.6,Tillicoultry,15158,56.148819,-3.7458095
1406,2010-07-01,0.0,Camphill WTW Raingauge,490984,55.75032761,-4.74461262
1407,2010-07-01,150.2,Gargunnock,14892,56.13266077,-4.070571402
1408,2010-07-01,162.2,Lukeston,327237,55.98447497,-4.240765022
1409,2010-07-01,173.4,High Corrie (Gartmore),15166,56.1262023,-4.446294544
1410,2010-07-01,160.8,Newton of Falkland,15083,56.25431474,-3.186268594
1411,2010-07-01,130.2,Gatelawbridge,115568,55.25076797,-3.730683565
1412,2010-07-01,128.0,Prestwick,344764,55.50523784,-4.610940702
1413,2010-07-01,95.0,Alford,234170,57.24230294,-2.717123004
1414,2010-07-01,92.6,Derry Lodge,454765,57.02065155,-3.58738853
1415,2010-07-01,0.0,Culloden Battlefield,498341,57.47676464,-4.09126842
1416,2010-07-01,0.0,Comer Farm,552791,56.2015072327063,-4.60131037579935
1417,2010-07-01,208.0,Kirriereoch,115599,55.15077902,-4.571934377
1418,2010-07-01,163.0,Blackdyke Farm,115516,55.52935031,-4.326283061
1419,2010-07-01,112.8,Forehill,336372,57.50635026,-1.843281987
1420,2010-07-01,0.0,Hazelwood Cottage,115582,56.2671528358581,-5.49466255293018
1421,2010-07-01,142.0,Lochindorb North,336847,57.41478835,-3.691385645
1422,2010-07-01,113.4,Murton,335650,56.65077608,-2.823539396
1423,2010-07-01,186.0,Dunstaffnage,365257,56.45050242,-5.439870612
1424,2010-07-01,67.4,Jedburgh,15006,55.4852912237259,-2.54668703951087
1425,2010-07-01,152.6,Newtonairds,115627,55.10134134,-3.742902191
1426,2010-07-01,157.8,Killin,14933,56.45816211,-4.331876561
1427,2010-07-01,68.2,Mouthbridge,15022,55.770128146213,-2.27919326297828
1428,2010-07-01,0.0,Milton of Evelix TBR,494729,57.8912874892072,-4.08416450338909
1429,2010-07-01,133.4,Charr,234183,56.94084906,-2.619402267
1430,2010-07-01,183.0,Meadowfoot,115616,55.40534471,-3.799886702
1431,2010-07-01,128.6,Scardroy No3,347562,57.51892459,-4.985935657
1432,2010-07-01,167.6,Little Assynt,234264,58.1743810886208,-5.15230276806827
1433,2010-07-01,168.6,Rhiconich,336217,58.42139172,-4.991227379
1434,2010-07-01,0.0,Dalblair,538510,55.44485443,-4.1519297
1435,2010-07-01,137.6,Ettrick Bay,115563,55.85650223,-5.145834193
1436,2010-07-01,149.0,Millport,115618,55.74955539,-4.907441406
1437,2010-07-01,416.8,Allt Dearg House,115304,57.28490502,-6.187008123
1438,2010-07-01,113.0,Boleside,533744,55.5916432342931,-2.79887877404223
1439,2010-07-01,128.2,Dalmarnock STW,327234,55.8374507,-4.216965486
1440,2010-07-01,99.4,Hatton No 2,115227,57.42757524,-1.909678484
1441,2010-07-01,0.0,Tarland WWTP,511327,57.1250488281981,-2.8514504640691
1442,2010-07-01,132.0,Quarry Head,335575,57.63465034,-2.025944065
1443,2010-07-01,169.0,Mongour,115235,57.00199506,-2.388582046
1444,2010-07-01,106.6,Letham Grange,338381,56.60403394,-2.609495534
1445,2010-07-01,7.0,Bannockburn,14897,56.09528478,-3.911816854
1446,2010-07-01,0.0,Unthank Raingauge,506152,55.2428144328791,-2.96407300182699
1447,2010-07-01,0.0,Frenich Farm,552790,56.2269416185393,-4.56047224967827
1448,2010-07-01,148.2,Dalbeattie STW,115546,54.92152642,-3.821987578
1449,2010-07-01,0.0,Comiston Rain Gauge,525510,55.9101940076868,-3.21598826974242
1450,2010-07-01,106.8,Cambo Sands,338380,56.3008799,-2.650067453
1451,2010-07-01,88.0,Abbey St Bathans,15018,55.8532963314108,-2.38744835623352
1452,2010-07-01,94.8,Montrose,15078,56.69908575,-2.491155025
1453,2010-07-01,109.4,Gladhouse Reservoir,15204,55.7784118,-3.117398754
1454,2010-07-01,78.0,Ayton Castle,15132,55.8472764491842,-2.11461102258224
1455,2010-07-01,102.0,Kilphedir,234253,58.1413891058536,-3.70281401936696
1456,2010-07-01,151.2,Garrogie Lodge,464495,57.17006125,-4.442843871
1457,2010-07-01,108.0,Esslemont House,115221,57.36510966,-2.112363417
1458,2010-07-01,147.8,Glenmavis,327238,55.89359141,-4.013210328
1459,2010-07-01,137.0,Drummore of Cantray,377134,57.48325079,-4.006176025
1460,2010-07-01,182.8,Amlaird,115500,55.66964373,-4.413260863
1461,2010-07-01,0.0,Pluscarden Abbey,486057,57.59946107,-3.433170424
1462,2010-07-01,148.8,Blackhills No 2,115203,57.61017023,-3.222796593
1463,2010-07-01,143.2,Kinkell Bridge,14968,56.33018709,-3.726992915
1464,2010-07-01,105.2,Bush,335612,55.86190844,-3.206554074
1465,2010-07-01,105.8,Lyne Station,14974,55.6473318263272,-3.25808918040462
1466,2010-07-01,149.0,Killermont Raingauge,341380,55.91108458,-4.305014408
1467,2010-07-01,218.4,Killilan,234252,57.31881832,-5.424835603
1468,2010-07-01,91.8,Nigg Headworks,335797,57.13140193,-2.061103972
1469,2010-07-01,0.0,Lingerton,133106,56.01244753,-5.422443562
1470,2010-07-01,171.4,Glenbreck,368490,55.4820219628409,-3.47775472797171
1471,2010-07-01,71.0,Gairnshiel,115223,57.09199509,-3.165582141
1472,2010-07-01,0.0,Hunterston Terminal,469625,55.74447583,-4.86116797
1473,2010-07-01,100.2,Sorbie,115648,54.79252816,-4.42628864
1474,2010-07-01,130.0,Culzean Castle,115544,55.35068095,-4.791520726
1475,2010-07-01,115.8,Keith,367360,57.55084994,-2.952079018
1476,2010-07-01,98.4,Cabrach,234176,57.34816,-3.034565786
1477,2010-07-01,90.4,Hatton (Perth),335640,56.52513594,-2.648539891
1478,2010-07-01,0.0,Badbea,518147,57.8624394131174,-5.31874666420385
1479,2010-07-01,0.0,Balfron STW,517412,56.0652344105772,-4.33334331797487
1480,2010-07-01,85.4,Castle Kennedy,116042,54.90675279,-4.944931414
1481,2010-07-01,155.4,Loch Venachar,14898,56.23425763,-4.256866368
1482,2010-07-01,129.6,Strathkinness,11368,56.33136897,-2.863918962
1483,2010-07-01,180.6,Picketlaw Reservoir,115632,55.73611493,-4.281846657
1484,2010-07-01,133.8,Auchentroig,15163,56.11221933,-4.342412217
1485,2010-07-01,144.6,Merton Bank Lochmaben,115617,55.13494009,-3.439865821
1486,2010-07-01,147.6,Portmoak,15149,56.19239436,-3.334726298
1487,2010-07-01,0.0,Corsock,336434,55.05876816,-3.945715778
1488,2010-07-01,119.2,Gilston,15114,55.80025456,-2.883463821
1489,2010-07-01,98.0,Shiplaw,14975,55.7279691733531,-3.20729143414443
1490,2010-07-01,194.0,Braidlie,133144,55.26142915,-2.824951121
1491,2010-07-01,140.2,Perth Norwich Union,341345,56.38611935,-3.464092253
1492,2010-07-01,207.0,Brockhoperig,14987,55.4061285999832,-3.21151338374637
1493,2010-07-01,112.6,Glenmore Lodge No 2,115225,57.16421784,-3.677609728
1494,2010-07-01,0.0,Auchdergannach,491811,57.22063972,-3.651932222
1495,2010-07-01,109.4,Corrimony,115322,57.33501743,-4.699729622
1496,2010-07-01,147.2,Laxdale,356217,57.86865846,-6.893581696
1497,2010-07-01,109.6,Strathy Bridge,234319,58.55872143,-4.002604762
1498,2010-07-01,202.8,Strathyre,15172,56.32054504,-4.328975608
1499,2010-07-01,104.8,Avonbank,322556,55.66347112,-4.051617294
1500,2010-07-01,0.0,Lochwinnoch,509677,55.7885315233721,-4.61894323306089
1501,2010-07-01,80.2,Sluggan,234314,57.2739976291366,-3.87599734801261
1502,2010-07-01,0.0,Rest and be Thankful,485490,56.22216848,-4.859016846
1503,2010-07-01,112.0,Deskry Shiel,335582,57.18037959,-2.983867766
1504,2010-07-01,116.8,Slamannan,464630,55.94205217,-3.832217321
1505,2010-07-01,172.2,Luib,115376,57.5445048,-5.123945869
