,timestamp,value,station_name,station_no,station_latitude,station_longitude
0,2010-02-01,47.8,Abbey St Bathans,15018,55.8532963314108,-2.38744835623352
1,2010-02-01,26.4,Glenmuick No2,367371,56.95161175,-3.141253355
2,2010-02-01,86.8,Glen Strae,133088,56.42522107,-5.000795867
3,2010-02-01,42.2,Glenochil,14891,56.14364525,-3.839304837
4,2010-02-01,0.0,Culloden Battlefield,498341,57.47676464,-4.09126842
5,2010-02-01,53.2,Torwinny,234326,57.52198313,-3.446843553
6,2010-02-01,82.2,Strathkelvin House,300383,55.94300475,-4.172710018
7,2010-02-01,35.0,Glenquey,464636,56.20739317,-3.642080305
8,2010-02-01,86.4,Inveruglas,115588,56.2473573,-4.71287133
9,2010-02-01,6.8,Cullen,234192,57.68712295,-2.83323079
10,2010-02-01,65.2,Daldowie STW,327232,55.83262494,-4.122714806
11,2010-02-01,73.4,Crichton,15224,55.84509063,-2.988655721
12,2010-02-01,48.2,Gordon Arms,14984,55.5113722712304,-3.09640690612754
13,2010-02-01,62.8,Greenock,327292,55.94370132,-4.723991358
14,2010-02-01,132.4,Glen Nevis,115343,56.79923208,-5.067543348
15,2010-02-01,68.4,Culzean Castle,115544,55.35068095,-4.791520726
16,2010-02-01,74.2,Creed Bridge,234190,58.20454028,-6.424227928
17,2010-02-01,0.0,Craigenlee Croft Raingauge,513003,54.8629459170786,-5.07527966446311
18,2010-02-01,91.2,Stonyford,369551,56.84214794,-2.811870347
19,2010-02-01,99.6,Halkirk,234231,58.5154974,-3.493004244
20,2010-02-01,0.0,Glen Ample,335745,56.354577358483,-4.26999369364804
21,2010-02-01,68.6,Harelaw,335614,55.91651494,-3.086776845
22,2010-02-01,101.4,Torduff,15190,55.8968016,-3.267160193
23,2010-02-01,68.0,Craigdarroch,115541,55.196659,-3.981943267
24,2010-02-01,68.0,Gogarbank,15196,55.92834002,-3.342742573
25,2010-02-01,74.4,Clachan-Seil,115534,56.30375755,-5.601429727
26,2010-02-01,60.0,Tulchan,115247,57.399186873922,-3.44381881984428
27,2010-02-01,36.2,Gella Bridge,14916,56.77535832,-3.027929218
28,2010-02-01,52.0,Gargunnock,14892,56.13266077,-4.070571402
29,2010-02-01,50.8,Delnashaugh,234198,57.39970792,-3.357845061
30,2010-02-01,52.8,Kirkcaldy,335617,56.11765342,-3.147961765
31,2010-02-01,76.4,Haddington STW,15226,55.9605092339233,-2.75022457021791
32,2010-02-01,37.6,Glenmore Lodge No 2,115225,57.16421784,-3.677609728
33,2010-02-01,88.2,Glenmavis,327238,55.89359141,-4.013210328
34,2010-02-01,0.0,Dalblair,538510,55.44485443,-4.1519297
35,2010-02-01,65.8,St Monance,335620,56.2047855,-2.78271364
36,2010-02-01,0.0,Hazelwood Cottage,115582,56.2671528358581,-5.49466255293018
37,2010-02-01,0.0,Comiston Rain Gauge,525510,55.9101940076868,-3.21598826974242
38,2010-02-01,0.0,High Corrie (Gartmore),15166,56.1262023,-4.446294544
39,2010-02-01,59.8,Gilston,15114,55.80025456,-2.883463821
40,2010-02-01,0.0,Hunterston Terminal,469625,55.74447583,-4.86116797
41,2010-02-01,65.4,Dalmarnock STW,327234,55.8374507,-4.216965486
42,2010-02-01,0.0,Comer Farm,552791,56.2015072327063,-4.60131037579935
43,2010-02-01,22.6,Hydro Gardens Moffat,115584,55.34214596,-3.452988353
44,2010-02-01,12.4,Tromie Bridge,234327,57.0717185,-3.998638147
45,2010-02-01,46.4,Inchvuilt,115354,57.40830735,-4.957620811
46,2010-02-01,77.6,Colliston,14921,56.61000991,-2.637841019
47,2010-02-01,26.8,Spey Dam,234315,57.01121062,-4.336367491
48,2010-02-01,47.6,Ingleston Farm,115585,54.81170556,-4.166358356
49,2010-02-01,69.4,Coille Mhorgil,115319,57.0643694,-5.134923813
50,2010-02-01,69.4,Inshes,336367,57.45203372,-4.184715941
51,2010-02-01,0.0,Gifford Rain Gauge,474984,55.89043578,-2.768969478
52,2010-02-01,48.0,Dalbeattie STW,115546,54.92152642,-3.821987578
53,2010-02-01,48.0,Glenbreck,368490,55.4820219628409,-3.47775472797171
54,2010-02-01,63.6,Strathkinness,11368,56.33136897,-2.863918962
55,2010-02-01,45.4,Townfoot (Glencaple),323188,54.99473579,-3.568993615
56,2010-02-01,78.6,Harperrig,15200,55.83652095,-3.435270947
57,2010-02-01,79.4,Dallachy No 2,205724,57.66404417,-3.071018416
58,2010-02-01,28.4,Upper Monachlye,116007,56.39271229,-4.463706898
59,2010-02-01,48.2,Hatton (Perth),335640,56.52513594,-2.648539891
60,2010-02-01,58.8,Invermark,14926,56.91121364,-2.914811966
61,2010-02-01,0.0,Cleuchhead,499810,56.94774412,-2.388756894
62,2010-02-01,13.0,Inverey,115230,56.98569953,-3.500915775
63,2010-02-01,16.4,Dalnamein,14960,56.79925858,-4.053453634
64,2010-02-01,35.0,Coignafearn,115318,57.23285188,-4.139289943
65,2010-02-01,69.6,Inverewe Garden,115356,57.77399694,-5.596995718
66,2010-02-01,103.2,South Moorhouse,115649,55.73251416,-4.350287842
67,2010-02-01,35.2,Corrimony,115322,57.33501743,-4.699729622
68,2010-02-01,0.0,Kirkcudbright Raingauge,504458,54.84543419,-4.038511682
69,2010-02-01,0.0,Cairngorm Raingauge and Snow Scale,523676,57.1277019960426,-3.66295585786453
70,2010-02-01,50.2,Sorbie,115648,54.79252816,-4.42628864
71,2010-02-01,67.4,Killermont Raingauge,341380,55.91108458,-4.305014408
72,2010-02-01,78.6,Killilan,234252,57.31881832,-5.424835603
73,2010-02-01,22.6,Garrogie Lodge,464495,57.17006125,-4.442843871
74,2010-02-01,92.0,Strathyre,15172,56.32054504,-4.328975608
75,2010-02-01,50.0,Cambo Sands,338380,56.3008799,-2.650067453
76,2010-02-01,59.0,Castle Kennedy,116042,54.90675279,-4.944931414
77,2010-02-01,0.0,Carmyllie-Hume Farm,577951,56.5746496931231,-2.74133187731856
78,2010-02-01,89.8,Kilphedir,234253,58.1413891058536,-3.70281401936696
79,2010-02-01,0.0,Unthank Raingauge,506152,55.2428144328791,-2.96407300182699
80,2010-02-01,31.2,Solwaybank,115647,55.08629786,-3.086937218
81,2010-02-01,0.0,Kinbuck,14890,56.2255551,-3.949530685
82,2010-02-01,105.0,Deanston RG,341338,56.19223931,-4.077181451
83,2010-02-01,36.8,Capenoch Raingauge,576753,55.2266681707693,-3.8169342186531
84,2010-02-01,93.8,Charr,234183,56.94084906,-2.619402267
85,2010-02-01,28.2,Kindrogan,14955,56.74926972,-3.544931301
86,2010-02-01,38.6,Garls Craig,301168,55.36599829,-3.616030256
87,2010-02-01,0.0,Kinghorn Ecology Centre Rain Gauge,473550,56.07462319,-3.193432968
88,2010-02-01,44.2,Kingledores,14972,55.54240926,-3.413947163
89,2010-02-01,0.0,Camphill WTW Raingauge,490984,55.75032761,-4.74461262
90,2010-02-01,91.8,Kinkell Bridge,14968,56.33018709,-3.726992915
91,2010-02-01,68.8,Killin,14933,56.45816211,-4.331876561
92,2010-02-01,40.0,Prestwick,344764,55.50523784,-4.610940702
93,2010-02-01,74.4,Shiplaw,14975,55.7279691733531,-3.20729143414443
94,2010-02-01,78.8,Dunglass,15208,55.94267446,-2.382881362
95,2010-02-01,0.0,Rest and be Thankful,485490,56.22216848,-4.859016846
96,2010-02-01,97.4,Quarry Head,335575,57.63465034,-2.025944065
97,2010-02-01,41.0,Aberlour,234150,57.48021805,-3.205975095
98,2010-02-01,0.0,Dunnottar Radio Station,509196,56.9465249628923,-2.21202446021694
99,2010-02-01,0.0,Quinloch Farm,115638,56.0079586,-4.377500029
100,2010-02-01,27.0,Canonbie Raingauge,306455,55.07786221,-2.942088127
101,2010-02-01,45.0,Keith,367360,57.55084994,-2.952079018
102,2010-02-01,50.8,Chesters,15004,55.3786296146422,-2.58960768063178
103,2010-02-01,9.8,Dalwhinnie,302120,56.94069555,-4.238639574
104,2010-02-01,0.0,Kirriemuir STW,361048,56.65983513,-2.999773468
105,2010-02-01,24.0,Gairnshiel,115223,57.09199509,-3.165582141
106,2010-02-01,35.8,Cabrach,234176,57.34816,-3.034565786
107,2010-02-01,94.6,Slamannan,464630,55.94205217,-3.832217321
108,2010-02-01,91.4,Kirriereoch,115599,55.15077902,-4.571934377
109,2010-02-01,18.8,Derry Lodge,454765,57.02065155,-3.58738853
110,2010-02-01,37.0,Kinmount House,115596,55.01095443,-3.351411196
111,2010-02-01,77.8,Bush,335612,55.86190844,-3.206554074
112,2010-02-01,93.8,Ladyflat Farm,368486,55.7563671174819,-2.36950120236659
113,2010-02-01,53.8,Burnfoot (Hawknest),115523,55.66513433,-3.895712474
114,2010-02-01,0.0,Frenich Farm,552790,56.2269416185393,-4.56047224967827
115,2010-02-01,86.6,Lagafater Lodge,115600,55.04328363,-4.913741812
116,2010-02-01,48.4,Lanark STW,115603,55.67436394,-3.795938206
117,2010-02-01,51.6,Brockhoperig,14987,55.4061285999832,-3.21151338374637
118,2010-02-01,0.0,Urquhart,115406,57.59399199,-4.374371661
119,2010-02-01,26.6,Fourmerkland,115565,55.1650788,-3.412506453
120,2010-02-01,0.0,Strowan,361047,56.36918493,-3.92115763
121,2010-02-01,47.8,Jedburgh,15006,55.4852912237259,-2.54668703951087
122,2010-02-01,40.8,Gatelawbridge,115568,55.25076797,-3.730683565
123,2010-02-01,84.0,Cheyne,335574,56.97482596,-2.266470239
124,2010-02-01,58.4,Irvine Gailes,115589,55.58754361,-4.663320263
125,2010-02-01,111.2,Inverurie,367365,57.2583172,-2.362253256
126,2010-02-01,0.0,Tomatin No2,564863,57.3381639827187,-4.01336020841456
127,2010-02-01,0.0,Kirkwall,515885,58.9862236273856,-2.9493528634113
128,2010-02-01,29.2,Sluggan,234314,57.2739976291366,-3.87599734801261
129,2010-02-01,99.8,Knockanrock,115363,58.03118174,-5.07294078
130,2010-02-01,18.4,Deskry Shiel,335582,57.18037959,-2.983867766
131,2010-02-01,91.0,Lathro,14902,56.2213192,-3.42872292
132,2010-02-01,30.2,Broadside,335609,56.02806207,-3.978158502
133,2010-02-01,100.0,Langwell Lodge,354621,57.9748238,-5.100589967
134,2010-02-01,0.0,Shotts WWTW,494255,55.81395203,-3.811987501
135,2010-02-01,50.4,Affric Lodge,115301,57.26272622,-5.005979754
136,2010-02-01,66.8,Strathy Bridge,234319,58.55872143,-4.002604762
137,2010-02-01,98.6,Caldercruix STW,115526,55.88933558,-3.904553259
138,2010-02-01,107.8,Hatton No 2,115227,57.42757524,-1.909678484
139,2010-02-01,70.8,Lingerton,133106,56.01244753,-5.422443562
140,2010-02-01,52.4,Braeroy Lodge,115315,56.98511362,-4.738585589
141,2010-02-01,107.6,Little Assynt,234264,58.1743810886208,-5.15230276806827
142,2010-02-01,57.2,Loch Ailsh Level,354613,58.04827715,-4.855312073
143,2010-02-01,28.0,Braco (Dunduff),15161,56.28192154,-3.904225732
144,2010-02-01,69.2,Wardend Bridge,234331,57.58239454,-3.608335401
145,2010-02-01,71.8,Dingwall,115329,57.5999202496956,-4.44699709665912
146,2010-02-01,63.4,Loch Droma,115368,57.73309629,-4.936434641
147,2010-02-01,0.0,Bow Burn - WQMS,101227,55.44068058,-4.498633861
148,2010-02-01,79.0,Forsinain,115340,58.41100711,-3.873563607
149,2010-02-01,63.4,Loch Katrine,14910,56.22701614,-4.436245731
150,2010-02-01,35.6,Boreland,115518,55.20254702,-3.320073284
151,2010-02-01,107.4,Rothienorman,115239,57.40900118,-2.466784574
152,2010-02-01,71.4,Sgodachail,234305,57.8932766383122,-4.54697639942866
153,2010-02-01,100.0,Forehill,336372,57.50635026,-1.843281987
154,2010-02-01,62.6,Boleside,533744,55.5916432342931,-2.79887877404223
155,2010-02-01,31.0,Loch Venachar,14898,56.23425763,-4.256866368
156,2010-02-01,37.6,Moar,14949,56.57276553,-4.388958153
157,2010-02-01,50.4,Braidlie,133144,55.26142915,-2.824951121
158,2010-02-01,0.0,Loch Restil,485489,56.23604254,-4.853369348
159,2010-02-01,54.4,Birkie Hue,320371,58.16554218,-6.740713858
160,2010-02-01,45.6,Flichity,115339,57.33128618,-4.221750189
161,2010-02-01,58.4,Low Creoch,115611,54.90352684,-4.18922643
162,2010-02-01,79.2,Letham Grange,338381,56.60403394,-2.609495534
163,2010-02-01,0.0,Lossiemouth,473167,57.71918475,-3.323337879
164,2010-02-01,53.8,Blackdyke Farm,115516,55.52935031,-4.326283061
165,2010-02-01,0.0,Lochwinnoch,509677,55.7885315233721,-4.61894323306089
166,2010-02-01,65.6,Waterside Perth,369554,56.89929851,-2.820760629
167,2010-02-01,96.0,Blackhills No 2,115203,57.61017023,-3.222796593
168,2010-02-01,44.4,Lochindorb North,336847,57.41478835,-3.691385645
169,2010-02-01,108.2,Dippen,133077,55.58274848,-5.496523588
170,2010-02-01,72.2,Scardroy No3,347562,57.51892459,-4.985935657
171,2010-02-01,66.4,Mongour,115235,57.00199506,-2.388582046
172,2010-02-01,40.6,Forter,14948,56.76674681,-3.332205729
173,2010-02-01,63.6,Tobermory,115654,56.62026156,-6.080645248
174,2010-02-01,67.8,Gladhouse Reservoir,15204,55.7784118,-3.117398754
175,2010-02-01,97.0,Dipple,115217,57.61125291,-3.115476523
176,2010-02-01,64.0,Luib,115376,57.5445048,-5.123945869
177,2010-02-01,113.4,Beltmoss,327235,55.98678855,-4.056528766
178,2010-02-01,99.6,Lukeston,327237,55.98447497,-4.240765022
179,2010-02-01,78.6,Saughall,115645,55.60098751,-4.226431521
180,2010-02-01,56.4,Luss Raingauge,129558,56.09892116,-4.638863963
181,2010-02-01,3.0,Bannockburn,14897,56.09528478,-3.911816854
182,2010-02-01,52.0,Lyne Station,14974,55.6473318263272,-3.25808918040462
183,2010-02-01,75.8,Waulkmill Glen,115660,55.79484353,-4.353627607
184,2010-02-01,54.2,Meadowfoot,115616,55.40534471,-3.799886702
185,2010-02-01,1.0,Baluniefield,374852,56.48264025,-2.905576117
186,2010-02-01,77.2,Ettrick Bay,115563,55.85650223,-5.145834193
187,2010-02-01,30.0,Merton Bank Lochmaben,115617,55.13494009,-3.439865821
188,2010-02-01,59.0,Dosmucheran,234202,57.59587318,-5.005770119
189,2010-02-01,76.2,Balmedie STW,115202,57.25007263,-2.0473803
190,2010-02-01,118.4,Saline,15155,56.12224003,-3.585958925
191,2010-02-01,38.2,Biggar Burn,368536,55.6503509335496,-3.54376527843482
192,2010-02-01,86.2,Fife Airport,15151,56.1816502,-3.222449068
193,2010-02-01,0.0,Drum,464646,56.18484641,-3.532323684
194,2010-02-01,83.8,Weisdale Mill,116008,60.2593269,-1.288604022
195,2010-02-01,0.0,Eskdalemuir Observatory,15100,55.3115132595484,-3.20679877544895
196,2010-02-01,0.0,Baintown Rain-gauge,501947,56.22101614,-3.042679056
197,2010-02-01,51.2,Luffness,14865,56.02022484,-2.821888561
198,2010-02-01,49.4,Minnigaff,338429,54.9588823,-4.471659058
199,2010-02-01,0.0,Balfron STW,517412,56.0652344105772,-4.33334331797487
200,2010-02-01,113.4,Esslemont House,115221,57.36510966,-2.112363417
201,2010-02-01,65.4,Millport,115618,55.74955539,-4.907441406
202,2010-02-01,0.0,Mill Of Gavel,205209,57.55561687,-2.009109628
203,2010-02-01,0.0,Balgray RG,490985,55.73428872,-4.5878755
204,2010-02-01,91.2,Mill Croft,354623,57.2886568,-7.368331541
205,2010-02-01,0.0,Milton of Evelix TBR,494729,57.8912874892072,-4.08416450338909
206,2010-02-01,41.8,Tillicoultry,15158,56.148819,-3.7458095
207,2010-02-01,0.0,Tarland WWTP,511327,57.1250488281981,-2.8514504640691
208,2010-02-01,24.8,Auchnafree,14952,56.47302976,-3.904678161
209,2010-02-01,88.8,Ayton Castle,15132,55.8472764491842,-2.11461102258224
210,2010-02-01,98.8,Mouthbridge,15022,55.770128146213,-2.27919326297828
211,2010-02-01,64.8,Drumjohn,115557,55.24992466,-4.32205779
212,2010-02-01,60.2,Rossie Farm,15070,56.29912602,-3.202717904
213,2010-02-01,66.8,Avonbank,322556,55.66347112,-4.051617294
214,2010-02-01,0.0,Muirshiel RG,490986,55.84918458,-4.742664896
215,2010-02-01,68.0,Murton,335650,56.65077608,-2.823539396
216,2010-02-01,100.6,Avochie,234161,57.50564634,-2.782377895
217,2010-02-01,0.0,Westhill,115250,57.14756943,-2.291989375
218,2010-02-01,0.0,Baddinsgill Reservoir,15103,55.7838820984555,-3.39458495099376
219,2010-02-01,0.0,Einig Wood,492363,57.94421601,-4.764511928
220,2010-02-01,38.6,Mylnefield,335651,56.46017678,-3.075838089
221,2010-02-01,33.2,Old Mill of Newton,367364,57.35801578,-2.577016947
222,2010-02-01,48.4,Nairn Dunbar Golf Course,341224,57.59406094,-3.842759406
223,2010-02-01,179.4,Monyquil Farm,133115,55.56419458,-5.271931931
224,2010-02-01,28.8,Auchinner,14964,56.31678388,-4.112254665
225,2010-02-01,72.0,New Kelso,234289,57.42953514,-5.429999168
226,2010-02-01,39.8,Drummore of Cantray,377134,57.48325079,-4.006176025
227,2010-02-01,63.0,Newton of Falkland,15083,56.25431474,-3.186268594
228,2010-02-01,17.4,Auchentroig,15163,56.11221933,-4.342412217
229,2010-02-01,50.2,Newtonairds,115627,55.10134134,-3.742902191
230,2010-02-01,4.8,Edinburgh RBG (Royal Botanic Garden),15201,55.9666233709368,-3.21231073711968
231,2010-02-01,1.6,Nigg Headworks,335797,57.13140193,-2.061103972
232,2010-02-01,0.0,Auchdergannach,491811,57.22063972,-3.651932222
233,2010-02-01,68.0,North Berwick (Kingston),335621,56.03149667,-2.734270572
234,2010-02-01,44.0,Teviothead,14999,55.3422273375472,-2.9364812156604
235,2010-02-01,173.2,Lecht Weather Station,412495,57.19821668,-3.25888009
236,2010-02-01,55.0,Brigton,115521,55.03779638,-4.566314357
237,2010-02-01,0.0,Laxdale,356217,57.86865846,-6.893581696
238,2010-02-01,0.0,Corsock,336434,55.05876816,-3.945715778
239,2010-02-01,67.0,Ross Priory,133124,56.05257642,-4.55746111
240,2010-02-01,43.0,Eliock,115562,55.34583036,-3.899113859
241,2010-02-01,58.4,Muirkirk STW,115622,55.51335703,-4.096604222
242,2010-02-01,69.4,Montrose,15078,56.69908575,-2.491155025
243,2010-02-01,46.2,Dunstaffnage,365257,56.45050242,-5.439870612
244,2010-02-01,0.0,Pluscarden Abbey,486057,57.59946107,-3.433170424
245,2010-02-01,62.8,Allt Dearg House,115304,57.28490502,-6.187008123
246,2010-02-01,85.2,Picketlaw Reservoir,115632,55.73611493,-4.281846657
247,2010-02-01,0.0,Badbea,518147,57.8624394131174,-5.31874666420385
248,2010-02-01,43.8,Perth Norwich Union,341345,56.38611935,-3.464092253
249,2010-02-01,0.0,Dundreggan Rain Gauge,530175,57.1916154062172,-4.76763419920281
250,2010-02-01,71.4,Amlaird,115500,55.66964373,-4.413260863
251,2010-02-01,37.6,Penwhapple Reservoir,335375,55.23585144,-4.747897404
252,2010-02-01,124.6,Amod Farm,115501,55.35009103,-5.717857841
253,2010-02-01,50.6,Ormiston Mill,15007,55.5449192444277,-2.47331449245388
254,2010-02-01,32.8,Annfield,15198,56.06640057,-3.371633207
255,2010-02-01,0.0,Dunbar,15216,56.00371307,-2.52752897
256,2010-02-01,73.6,East Kilbride,115560,55.75477386,-4.171759227
257,2010-02-01,62.0,Durkadale,234207,59.10852817,-3.232172832
258,2010-02-01,20.6,Polhollick,234294,57.05514629,-3.083180673
259,2010-02-01,133.6,Rhiconich,336217,58.42139172,-4.991227379
260,2010-02-01,0.0,White Clauchrie,502874,55.1412921,-4.677220867
261,2010-02-01,124.0,Allnabad,234151,58.3471767644614,-4.64462101395753
262,2010-02-01,73.8,Whitburn,14881,55.87157334,-3.682936938
263,2010-02-01,43.6,RhynieGS,368013,57.3317252,-2.828953912
264,2010-02-01,118.4,Nunraw Abbey,15215,55.92185875,-2.653499917
265,2010-02-01,13.8,Portmoak,15149,56.19239436,-3.334726298
266,2010-02-01,41.8,Portling,115634,54.87093795,-3.744601282
267,2010-02-01,69.2,Ashgrove,115506,55.66308049,-4.757486092
268,2010-02-01,3.2,The Lecht,115244,57.20200168,-3.249607166
269,2010-02-01,107.8,Dunnswood STW (Cumbernauld),15180,55.97221885,-3.954505606
270,2010-02-01,112.6,Polmonthill STW,15187,55.99776804,-3.680208641
271,2010-02-01,65.6,Rhian Bridge,115390,58.11499626,-4.439159665
272,2010-02-01,51.4,Allanfearn,115302,57.49914747,-4.151564133
273,2010-02-01,105.4,Polloch,234295,56.75844885,-5.613663683
274,2010-02-01,85.2,Alford,234170,57.24230294,-2.717123004
275,2010-03-01,0.0,Unthank Raingauge,506152,55.2428144328791,-2.96407300182699
276,2010-03-01,75.6,Glenmore Lodge No 2,115225,57.16421784,-3.677609728
277,2010-03-01,0.0,Rest and be Thankful,485490,56.22216848,-4.859016846
278,2010-03-01,0.0,Hunterston Terminal,469625,55.74447583,-4.86116797
279,2010-03-01,41.0,Letham Grange,338381,56.60403394,-2.609495534
280,2010-03-01,53.8,Sluggan,234314,57.2739976291366,-3.87599734801261
281,2010-03-01,143.2,Braidlie,133144,55.26142915,-2.824951121
282,2010-03-01,0.0,Lochwinnoch,509677,55.7885315233721,-4.61894323306089
283,2010-03-01,50.0,Gargunnock,14892,56.13266077,-4.070571402
284,2010-03-01,121.4,Mouthbridge,15022,55.770128146213,-2.27919326297828
285,2010-03-01,117.2,Meadowfoot,115616,55.40534471,-3.799886702
286,2010-03-01,16.0,Derry Lodge,454765,57.02065155,-3.58738853
287,2010-03-01,90.4,Amlaird,115500,55.66964373,-4.413260863
288,2010-03-01,0.0,Camphill WTW Raingauge,490984,55.75032761,-4.74461262
289,2010-03-01,57.8,Gilston,15114,55.80025456,-2.883463821
290,2010-03-01,72.8,Fife Airport,15151,56.1816502,-3.222449068
291,2010-03-01,96.0,Lyne Station,14974,55.6473318263272,-3.25808918040462
292,2010-03-01,0.0,Carmyllie-Hume Farm,577951,56.5746496931231,-2.74133187731856
293,2010-03-01,99.4,Picketlaw Reservoir,115632,55.73611493,-4.281846657
294,2010-03-01,201.8,Kirriereoch,115599,55.15077902,-4.571934377
295,2010-03-01,70.4,Auchentroig,15163,56.11221933,-4.342412217
296,2010-03-01,91.0,Slamannan,464630,55.94205217,-3.832217321
297,2010-03-01,76.2,Gladhouse Reservoir,15204,55.7784118,-3.117398754
298,2010-03-01,2.6,Bannockburn,14897,56.09528478,-3.911816854
299,2010-03-01,62.0,Garrogie Lodge,464495,57.17006125,-4.442843871
300,2010-03-01,56.4,Kinkell Bridge,14968,56.33018709,-3.726992915
301,2010-03-01,0.0,Badbea,518147,57.8624394131174,-5.31874666420385
302,2010-03-01,0.0,Corsock,336434,55.05876816,-3.945715778
303,2010-03-01,73.2,Killermont Raingauge,341380,55.91108458,-4.305014408
304,2010-03-01,9.2,Charr,234183,56.94084906,-2.619402267
305,2010-03-01,60.0,Cabrach,234176,57.34816,-3.034565786
306,2010-03-01,95.6,Keith,367360,57.55084994,-2.952079018
307,2010-03-01,0.0,Edinburgh RBG (Royal Botanic Garden),15201,55.9666233709368,-3.21231073711968
308,2010-03-01,107.6,Muirkirk STW,115622,55.51335703,-4.096604222
309,2010-03-01,111.0,Dalbeattie STW,115546,54.92152642,-3.821987578
310,2010-03-01,92.0,Rhiconich,336217,58.42139172,-4.991227379
311,2010-03-01,166.2,Mill Croft,354623,57.2886568,-7.368331541
312,2010-03-01,63.0,Old Mill of Newton,367364,57.35801578,-2.577016947
313,2010-03-01,41.6,Inshes,336367,57.45203372,-4.184715941
314,2010-03-01,68.4,Saline,15155,56.12224003,-3.585958925
315,2010-03-01,0.0,White Clauchrie,502874,55.1412921,-4.677220867
316,2010-03-01,73.8,Daldowie STW,327232,55.83262494,-4.122714806
317,2010-03-01,18.8,Tillicoultry,15158,56.148819,-3.7458095
318,2010-03-01,0.0,Craigenlee Croft Raingauge,513003,54.8629459170786,-5.07527966446311
319,2010-03-01,0.0,Kirkcudbright Raingauge,504458,54.84543419,-4.038511682
320,2010-03-01,0.0,Shotts WWTW,494255,55.81395203,-3.811987501
321,2010-03-01,73.0,Rothienorman,115239,57.40900118,-2.466784574
322,2010-03-01,164.2,Allnabad,234151,58.3471767644614,-4.64462101395753
323,2010-03-01,0.0,Moar,14949,56.57276553,-4.388958153
324,2010-03-01,119.8,Loch Katrine,14910,56.22701614,-4.436245731
325,2010-03-01,162.8,Coille Mhorgil,115319,57.0643694,-5.134923813
326,2010-03-01,36.8,Allanfearn,115302,57.49914747,-4.151564133
327,2010-03-01,17.8,Montrose,15078,56.69908575,-2.491155025
328,2010-03-01,0.0,Comiston Rain Gauge,525510,55.9101940076868,-3.21598826974242
329,2010-03-01,82.6,Waulkmill Glen,115660,55.79484353,-4.353627607
330,2010-03-01,80.6,High Corrie (Gartmore),15166,56.1262023,-4.446294544
331,2010-03-01,0.0,Nigg Headworks,335797,57.13140193,-2.061103972
332,2010-03-01,0.0,Dalblair,538510,55.44485443,-4.1519297
333,2010-03-01,71.8,Cambo Sands,338380,56.3008799,-2.650067453
334,2010-03-01,62.2,Hatton No 2,115227,57.42757524,-1.909678484
335,2010-03-01,83.8,Glenmavis,327238,55.89359141,-4.013210328
336,2010-03-01,64.0,Blackhills No 2,115203,57.61017023,-3.222796593
337,2010-03-01,111.6,Glen Strae,133088,56.42522107,-5.000795867
338,2010-03-01,103.0,Saughall,115645,55.60098751,-4.226431521
339,2010-03-01,53.8,Jedburgh,15006,55.4852912237259,-2.54668703951087
340,2010-03-01,57.2,Langwell Lodge,354621,57.9748238,-5.100589967
341,2010-03-01,83.4,Lanark STW,115603,55.67436394,-3.795938206
342,2010-03-01,0.0,Tomatin No2,564863,57.3381639827187,-4.01336020841456
343,2010-03-01,50.6,Gairnshiel,115223,57.09199509,-3.165582141
344,2010-03-01,77.0,Lochindorb North,336847,57.41478835,-3.691385645
345,2010-03-01,208.8,Allt Dearg House,115304,57.28490502,-6.187008123
346,2010-03-01,0.0,Comer Farm,552791,56.2015072327063,-4.60131037579935
347,2010-03-01,52.2,Hatton (Perth),335640,56.52513594,-2.648539891
348,2010-03-01,0.0,Laxdale,356217,57.86865846,-6.893581696
349,2010-03-01,100.8,Braeroy Lodge,115315,56.98511362,-4.738585589
350,2010-03-01,117.8,Luss Raingauge,129558,56.09892116,-4.638863963
351,2010-03-01,0.0,Pluscarden Abbey,486057,57.59946107,-3.433170424
352,2010-03-01,61.8,Dalmarnock STW,327234,55.8374507,-4.216965486
353,2010-03-01,108.4,Culzean Castle,115544,55.35068095,-4.791520726
354,2010-03-01,68.8,Dunstaffnage,365257,56.45050242,-5.439870612
355,2010-03-01,161.2,Brockhoperig,14987,55.4061285999832,-3.21151338374637
356,2010-03-01,33.4,Forehill,336372,57.50635026,-1.843281987
357,2010-03-01,34.4,Glenmuick No2,367371,56.95161175,-3.141253355
358,2010-03-01,0.0,Urquhart,115406,57.59399199,-4.374371661
359,2010-03-01,61.4,Dalwhinnie,302120,56.94069555,-4.238639574
360,2010-03-01,104.6,Bush,335612,55.86190844,-3.206554074
361,2010-03-01,100.8,Millport,115618,55.74955539,-4.907441406
362,2010-03-01,69.4,Shiplaw,14975,55.7279691733531,-3.20729143414443
363,2010-03-01,38.0,Kirriemuir STW,361048,56.65983513,-2.999773468
364,2010-03-01,81.6,Kinmount House,115596,55.01095443,-3.351411196
365,2010-03-01,68.4,Portmoak,15149,56.19239436,-3.334726298
366,2010-03-01,89.4,Durkadale,234207,59.10852817,-3.232172832
367,2010-03-01,75.6,Deskry Shiel,335582,57.18037959,-2.983867766
368,2010-03-01,0.0,Auchdergannach,491811,57.22063972,-3.651932222
369,2010-03-01,84.6,Merton Bank Lochmaben,115617,55.13494009,-3.439865821
370,2010-03-01,68.8,Loch Venachar,14898,56.23425763,-4.256866368
371,2010-03-01,44.4,Waterside Perth,369554,56.89929851,-2.820760629
372,2010-03-01,72.4,Mongour,115235,57.00199506,-2.388582046
373,2010-03-01,112.0,Portling,115634,54.87093795,-3.744601282
374,2010-03-01,78.2,Blackdyke Farm,115516,55.52935031,-4.326283061
375,2010-03-01,103.8,Chesters,15004,55.3786296146422,-2.58960768063178
376,2010-03-01,79.4,Lingerton,133106,56.01244753,-5.422443562
377,2010-03-01,35.8,Murton,335650,56.65077608,-2.823539396
378,2010-03-01,96.8,Hydro Gardens Moffat,115584,55.34214596,-3.452988353
379,2010-03-01,106.2,Newtonairds,115627,55.10134134,-3.742902191
380,2010-03-01,129.6,Auchnafree,14952,56.47302976,-3.904678161
381,2010-03-01,266.8,Lecht Weather Station,412495,57.19821668,-3.25888009
382,2010-03-01,50.4,Baluniefield,374852,56.48264025,-2.905576117
383,2010-03-01,0.0,Hazelwood Cottage,115582,56.2671528358581,-5.49466255293018
384,2010-03-01,114.8,Brigton,115521,55.03779638,-4.566314357
385,2010-03-01,143.2,Affric Lodge,115301,57.26272622,-5.005979754
386,2010-03-01,125.6,Dippen,133077,55.58274848,-5.496523588
387,2010-03-01,86.2,Killin,14933,56.45816211,-4.331876561
388,2010-03-01,103.0,Castle Kennedy,116042,54.90675279,-4.944931414
389,2010-03-01,75.8,Strathy Bridge,234319,58.55872143,-4.002604762
390,2010-03-01,94.4,Ettrick Bay,115563,55.85650223,-5.145834193
391,2010-03-01,0.0,Milton of Evelix TBR,494729,57.8912874892072,-4.08416450338909
392,2010-03-01,76.4,Kilphedir,234253,58.1413891058536,-3.70281401936696
393,2010-03-01,142.4,Strathyre,15172,56.32054504,-4.328975608
394,2010-03-01,0.0,Balfron STW,517412,56.0652344105772,-4.33334331797487
395,2010-03-01,94.4,Ayton Castle,15132,55.8472764491842,-2.11461102258224
396,2010-03-01,94.6,Boleside,533744,55.5916432342931,-2.79887877404223
397,2010-03-01,56.0,Polloch,234295,56.75844885,-5.613663683
398,2010-03-01,77.4,Avonbank,322556,55.66347112,-4.051617294
399,2010-03-01,94.6,Sorbie,115648,54.79252816,-4.42628864
400,2010-03-01,142.0,Abbey St Bathans,15018,55.8532963314108,-2.38744835623352
401,2010-03-01,27.0,Perth Norwich Union,341345,56.38611935,-3.464092253
402,2010-03-01,65.0,Prestwick,344764,55.50523784,-4.610940702
403,2010-03-01,66.6,Esslemont House,115221,57.36510966,-2.112363417
404,2010-03-01,0.0,Muirshiel RG,490986,55.84918458,-4.742664896
405,2010-03-01,33.0,Forter,14948,56.76674681,-3.332205729
406,2010-03-01,59.0,Quarry Head,335575,57.63465034,-2.025944065
407,2010-03-01,67.0,Strathkinness,11368,56.33136897,-2.863918962
408,2010-03-01,126.8,Glenbreck,368490,55.4820219628409,-3.47775472797171
409,2010-03-01,131.0,Killilan,234252,57.31881832,-5.424835603
410,2010-03-01,91.2,Corrimony,115322,57.33501743,-4.699729622
411,2010-03-01,0.0,Tarland WWTP,511327,57.1250488281981,-2.8514504640691
412,2010-03-01,97.6,Boreland,115518,55.20254702,-3.320073284
413,2010-03-01,98.6,Dipple,115217,57.61125291,-3.115476523
414,2010-03-01,75.2,Irvine Gailes,115589,55.58754361,-4.663320263
415,2010-03-01,108.8,Minnigaff,338429,54.9588823,-4.471659058
416,2010-03-01,0.0,Loch Restil,485489,56.23604254,-4.853369348
417,2010-03-01,0.0,Baddinsgill Reservoir,15103,55.7838820984555,-3.39458495099376
418,2010-03-01,39.4,Drummore of Cantray,377134,57.48325079,-4.006176025
419,2010-03-01,101.4,Solwaybank,115647,55.08629786,-3.086937218
420,2010-03-01,64.0,Newton of Falkland,15083,56.25431474,-3.186268594
421,2010-03-01,91.2,Harperrig,15200,55.83652095,-3.435270947
422,2010-03-01,28.2,Tromie Bridge,234327,57.0717185,-3.998638147
423,2010-03-01,108.0,Penwhapple Reservoir,335375,55.23585144,-4.747897404
424,2010-03-01,144.2,Dosmucheran,234202,57.59587318,-5.005770119
425,2010-03-01,38.2,Glenochil,14891,56.14364525,-3.839304837
426,2010-03-01,65.6,North Berwick (Kingston),335621,56.03149667,-2.734270572
427,2010-03-01,119.8,Kirkcaldy,335617,56.11765342,-3.147961765
428,2010-03-01,58.6,Delnashaugh,234198,57.39970792,-3.357845061
429,2010-03-01,70.2,Dallachy No 2,205724,57.66404417,-3.071018416
430,2010-03-01,106.0,Little Assynt,234264,58.1743810886208,-5.15230276806827
431,2010-03-01,198.0,Loch Ailsh Level,354613,58.04827715,-4.855312073
432,2010-03-01,0.0,Cairngorm Raingauge and Snow Scale,523676,57.1277019960426,-3.66295585786453
433,2010-03-01,0.0,Dundreggan Rain Gauge,530175,57.1916154062172,-4.76763419920281
434,2010-03-01,133.2,Craigdarroch,115541,55.196659,-3.981943267
435,2010-03-01,48.2,Polhollick,234294,57.05514629,-3.083180673
436,2010-03-01,112.8,The Lecht,115244,57.20200168,-3.249607166
437,2010-03-01,88.8,Beltmoss,327235,55.98678855,-4.056528766
438,2010-03-01,115.0,Eliock,115562,55.34583036,-3.899113859
439,2010-03-01,0.0,Kinbuck,14890,56.2255551,-3.949530685
440,2010-03-01,90.8,Lukeston,327237,55.98447497,-4.240765022
441,2010-03-01,104.0,Ingleston Farm,115585,54.81170556,-4.166358356
442,2010-03-01,0.0,Culloden Battlefield,498341,57.47676464,-4.09126842
443,2010-03-01,36.0,Nairn Dunbar Golf Course,341224,57.59406094,-3.842759406
444,2010-03-01,117.8,Gatelawbridge,115568,55.25076797,-3.730683565
445,2010-03-01,84.8,Dunnswood STW (Cumbernauld),15180,55.97221885,-3.954505606
446,2010-03-01,115.4,Townfoot (Glencaple),323188,54.99473579,-3.568993615
447,2010-03-01,132.4,Lagafater Lodge,115600,55.04328363,-4.913741812
448,2010-03-01,73.0,Polmonthill STW,15187,55.99776804,-3.680208641
449,2010-03-01,127.6,Low Creoch,115611,54.90352684,-4.18922643
450,2010-03-01,135.4,Amod Farm,115501,55.35009103,-5.717857841
451,2010-03-01,91.8,Fourmerkland,115565,55.1650788,-3.412506453
452,2010-03-01,82.2,Glenquey,464636,56.20739317,-3.642080305
453,2010-03-01,75.4,Strathkelvin House,300383,55.94300475,-4.172710018
454,2010-03-01,107.4,Torduff,15190,55.8968016,-3.267160193
455,2010-03-01,103.0,Braco (Dunduff),15161,56.28192154,-3.904225732
456,2010-03-01,74.8,St Monance,335620,56.2047855,-2.78271364
457,2010-03-01,71.6,Tulchan,115247,57.399186873922,-3.44381881984428
458,2010-03-01,87.2,Ashgrove,115506,55.66308049,-4.757486092
459,2010-03-01,42.0,Colliston,14921,56.61000991,-2.637841019
460,2010-03-01,35.6,Gella Bridge,14916,56.77535832,-3.027929218
461,2010-03-01,54.4,Inverurie,367365,57.2583172,-2.362253256
462,2010-03-01,4.8,Deanston RG,341338,56.19223931,-4.077181451
463,2010-03-01,60.6,Clachan-Seil,115534,56.30375755,-5.601429727
464,2010-03-01,62.6,Wardend Bridge,234331,57.58239454,-3.608335401
465,2010-03-01,0.0,Frenich Farm,552790,56.2269416185393,-4.56047224967827
466,2010-03-01,74.2,Whitburn,14881,55.87157334,-3.682936938
467,2010-03-01,95.0,Rhian Bridge,115390,58.11499626,-4.439159665
468,2010-03-01,0.0,Mill Of Gavel,205209,57.55561687,-2.009109628
469,2010-03-01,0.0,Balgray RG,490985,55.73428872,-4.5878755
470,2010-03-01,0.0,Kinghorn Ecology Centre Rain Gauge,473550,56.07462319,-3.193432968
471,2010-03-01,65.4,Lathro,14902,56.2213192,-3.42872292
472,2010-03-01,0.0,Strowan,361047,56.36918493,-3.92115763
473,2010-03-01,56.0,Broadside,335609,56.02806207,-3.978158502
474,2010-03-01,55.2,Spey Dam,234315,57.01121062,-4.336367491
475,2010-03-01,0.0,Dunnottar Radio Station,509196,56.9465249628923,-2.21202446021694
476,2010-03-01,0.0,Kirkwall,515885,58.9862236273856,-2.9493528634113
477,2010-03-01,81.0,Burnfoot (Hawknest),115523,55.66513433,-3.895712474
478,2010-03-01,139.8,Drumjohn,115557,55.24992466,-4.32205779
479,2010-03-01,109.6,Kingledores,14972,55.54240926,-3.413947163
480,2010-03-01,57.0,Dingwall,115329,57.5999202496956,-4.44699709665912
481,2010-03-01,93.0,Inchvuilt,115354,57.40830735,-4.957620811
482,2010-03-01,0.0,Balmedie STW,115202,57.25007263,-2.0473803
483,2010-03-01,136.8,Sgodachail,234305,57.8932766383122,-4.54697639942866
484,2010-03-01,26.6,Kindrogan,14955,56.74926972,-3.544931301
485,2010-03-01,65.2,Tobermory,115654,56.62026156,-6.080645248
486,2010-03-01,90.0,Weisdale Mill,116008,60.2593269,-1.288604022
487,2010-03-01,0.0,Annfield,15198,56.06640057,-3.371633207
488,2010-03-01,121.0,Glen Nevis,115343,56.79923208,-5.067543348
489,2010-03-01,53.6,Luffness,14865,56.02022484,-2.821888561
490,2010-03-01,0.0,Bow Burn - WQMS,101227,55.44068058,-4.498633861
491,2010-03-01,101.0,Aberlour,234150,57.48021805,-3.205975095
492,2010-03-01,0.0,Einig Wood,492363,57.94421601,-4.764511928
493,2010-03-01,77.0,Birkie Hue,320371,58.16554218,-6.740713858
494,2010-03-01,0.0,Drum,464646,56.18484641,-3.532323684
495,2010-03-01,73.0,Crichton,15224,55.84509063,-2.988655721
496,2010-03-01,83.4,RhynieGS,368013,57.3317252,-2.828953912
497,2010-03-01,92.6,Canonbie Raingauge,306455,55.07786221,-2.942088127
498,2010-03-01,68.0,Coignafearn,115318,57.23285188,-4.139289943
499,2010-03-01,104.8,Ladyflat Farm,368486,55.7563671174819,-2.36950120236659
500,2010-03-01,62.8,Gogarbank,15196,55.92834002,-3.342742573
501,2010-03-01,104.4,Avochie,234161,57.50564634,-2.782377895
502,2010-03-01,2.6,Cullen,234192,57.68712295,-2.83323079
503,2010-03-01,51.6,Stonyford,369551,56.84214794,-2.811870347
504,2010-03-01,83.4,Halkirk,234231,58.5154974,-3.493004244
505,2010-03-01,73.4,Ross Priory,133124,56.05257642,-4.55746111
506,2010-03-01,111.0,South Moorhouse,115649,55.73251416,-4.350287842
507,2010-03-01,38.6,Mylnefield,335651,56.46017678,-3.075838089
508,2010-03-01,0.0,Eskdalemuir Observatory,15100,55.3115132595484,-3.20679877544895
509,2010-03-01,134.4,Loch Droma,115368,57.73309629,-4.936434641
510,2010-03-01,260.4,Monyquil Farm,133115,55.56419458,-5.271931931
511,2010-03-01,145.6,New Kelso,234289,57.42953514,-5.429999168
512,2010-03-01,145.8,Garls Craig,301168,55.36599829,-3.616030256
513,2010-03-01,151.4,Luib,115376,57.5445048,-5.123945869
514,2010-03-01,153.8,Inveruglas,115588,56.2473573,-4.71287133
515,2010-03-01,109.2,Upper Monachlye,116007,56.39271229,-4.463706898
516,2010-03-01,78.2,Harelaw,335614,55.91651494,-3.086776845
517,2010-03-01,91.8,Caldercruix STW,115526,55.88933558,-3.904553259
518,2010-03-01,53.8,Torwinny,234326,57.52198313,-3.446843553
519,2010-03-01,0.0,Lossiemouth,473167,57.71918475,-3.323337879
520,2010-03-01,3.2,Dalnamein,14960,56.79925858,-4.053453634
521,2010-03-01,3.0,Knockanrock,115363,58.03118174,-5.07294078
522,2010-03-01,47.8,Cheyne,335574,56.97482596,-2.266470239
523,2010-03-01,155.0,Scardroy No3,347562,57.51892459,-4.985935657
524,2010-03-01,0.0,Quinloch Farm,115638,56.0079586,-4.377500029
525,2010-03-01,127.0,Nunraw Abbey,15215,55.92185875,-2.653499917
526,2010-03-01,96.8,Haddington STW,15226,55.9605092339233,-2.75022457021791
527,2010-03-01,80.0,Inverewe Garden,115356,57.77399694,-5.596995718
528,2010-03-01,77.4,Greenock,327292,55.94370132,-4.723991358
529,2010-03-01,27.4,Biggar Burn,368536,55.6503509335496,-3.54376527843482
530,2010-03-01,0.0,Gifford Rain Gauge,474984,55.89043578,-2.768969478
531,2010-03-01,88.4,Capenoch Raingauge,576753,55.2266681707693,-3.8169342186531
532,2010-03-01,0.0,Glen Ample,335745,56.354577358483,-4.26999369364804
533,2010-03-01,46.0,Alford,234170,57.24230294,-2.717123004
534,2010-03-01,0.0,Cleuchhead,499810,56.94774412,-2.388756894
535,2010-03-01,56.8,Westhill,115250,57.14756943,-2.291989375
536,2010-03-01,26.0,Inverey,115230,56.98569953,-3.500915775
537,2010-03-01,0.0,Baintown Rain-gauge,501947,56.22101614,-3.042679056
538,2010-03-01,139.6,Auchinner,14964,56.31678388,-4.112254665
539,2010-03-01,118.8,Teviothead,14999,55.3422273375472,-2.9364812156604
540,2010-03-01,93.4,Dunglass,15208,55.94267446,-2.382881362
541,2010-03-01,84.8,East Kilbride,115560,55.75477386,-4.171759227
542,2010-03-01,71.4,Creed Bridge,234190,58.20454028,-6.424227928
543,2010-03-01,58.6,Ormiston Mill,15007,55.5449192444277,-2.47331449245388
544,2010-03-01,112.6,Forsinain,115340,58.41100711,-3.873563607
545,2010-03-01,72.4,Flichity,115339,57.33128618,-4.221750189
546,2010-03-01,55.4,Gordon Arms,14984,55.5113722712304,-3.09640690612754
547,2010-03-01,54.8,Invermark,14926,56.91121364,-2.914811966
548,2010-03-01,53.8,Dunbar,15216,56.00371307,-2.52752897
549,2010-03-01,59.4,Rossie Farm,15070,56.29912602,-3.202717904
550,2010-04-01,0.0,Carmyllie-Hume Farm,577951,56.5746496931231,-2.74133187731856
551,2010-04-01,128.0,Kirriereoch,115599,55.15077902,-4.571934377
552,2010-04-01,70.8,Ettrick Bay,115563,55.85650223,-5.145834193
553,2010-04-01,105.0,Affric Lodge,115301,57.26272622,-5.005979754
554,2010-04-01,113.2,Killin,14933,56.45816211,-4.331876561
555,2010-04-01,68.6,Slamannan,464630,55.94205217,-3.832217321
556,2010-04-01,52.8,Forter,14948,56.76674681,-3.332205729
557,2010-04-01,14.6,Edinburgh RBG (Royal Botanic Garden),15201,55.9666233709368,-3.21231073711968
558,2010-04-01,34.2,Strathkinness,11368,56.33136897,-2.863918962
559,2010-04-01,21.8,Abbey St Bathans,15018,55.8532963314108,-2.38744835623352
560,2010-04-01,74.4,Glenbreck,368490,55.4820219628409,-3.47775472797171
561,2010-04-01,160.0,Strathyre,15172,56.32054504,-4.328975608
562,2010-04-01,77.2,Auchentroig,15163,56.11221933,-4.342412217
563,2010-04-01,47.4,Prestwick,344764,55.50523784,-4.610940702
564,2010-04-01,0.0,Unthank Raingauge,506152,55.2428144328791,-2.96407300182699
565,2010-04-01,52.4,Lecht Weather Station,412495,57.19821668,-3.25888009
566,2010-04-01,0.0,Muirshiel RG,490986,55.84918458,-4.742664896
567,2010-04-01,35.8,Letham Grange,338381,56.60403394,-2.609495534
568,2010-04-01,35.0,Keith,367360,57.55084994,-2.952079018
569,2010-04-01,40.0,Portmoak,15149,56.19239436,-3.334726298
570,2010-04-01,56.0,Shiplaw,14975,55.7279691733531,-3.20729143414443
571,2010-04-01,0.0,Auchdergannach,491811,57.22063972,-3.651932222
572,2010-04-01,76.4,Newtonairds,115627,55.10134134,-3.742902191
573,2010-04-01,54.2,Merton Bank Lochmaben,115617,55.13494009,-3.439865821
574,2010-04-01,52.2,Gairnshiel,115223,57.09199509,-3.165582141
575,2010-04-01,96.8,Waulkmill Glen,115660,55.79484353,-4.353627607
576,2010-04-01,102.8,Dalbeattie STW,115546,54.92152642,-3.821987578
577,2010-04-01,77.8,Rhian Bridge,115390,58.11499626,-4.439159665
578,2010-04-01,62.2,Castle Kennedy,116042,54.90675279,-4.944931414
579,2010-04-01,36.2,Baluniefield,374852,56.48264025,-2.905576117
580,2010-04-01,139.2,Laxdale,356217,57.86865846,-6.893581696
581,2010-04-01,56.2,Kilphedir,234253,58.1413891058536,-3.70281401936696
582,2010-04-01,47.6,Irvine Gailes,115589,55.58754361,-4.663320263
583,2010-04-01,70.8,Garrogie Lodge,464495,57.17006125,-4.442843871
584,2010-04-01,91.0,Glenmore Lodge No 2,115225,57.16421784,-3.677609728
585,2010-04-01,95.4,Lukeston,327237,55.98447497,-4.240765022
586,2010-04-01,0.0,Culloden Battlefield,498341,57.47676464,-4.09126842
587,2010-04-01,0.0,Baddinsgill Reservoir,15103,55.7838820984555,-3.39458495099376
588,2010-04-01,76.8,Saughall,115645,55.60098751,-4.226431521
589,2010-04-01,46.8,Polmonthill STW,15187,55.99776804,-3.680208641
590,2010-04-01,54.2,Wardend Bridge,234331,57.58239454,-3.608335401
591,2010-04-01,0.0,Balmedie STW,115202,57.25007263,-2.0473803
592,2010-04-01,56.6,Ashgrove,115506,55.66308049,-4.757486092
593,2010-04-01,108.0,Glenquey,464636,56.20739317,-3.642080305
594,2010-04-01,71.2,Strathkelvin House,300383,55.94300475,-4.172710018
595,2010-04-01,97.2,Braco (Dunduff),15161,56.28192154,-3.904225732
596,2010-04-01,104.8,Clachan-Seil,115534,56.30375755,-5.601429727
597,2010-04-01,78.2,Tulchan,115247,57.399186873922,-3.44381881984428
598,2010-04-01,37.8,Inverurie,367365,57.2583172,-2.362253256
599,2010-04-01,61.0,Culzean Castle,115544,55.35068095,-4.791520726
600,2010-04-01,23.2,Deanston RG,341338,56.19223931,-4.077181451
601,2010-04-01,82.0,Meadowfoot,115616,55.40534471,-3.799886702
602,2010-04-01,78.4,Lingerton,133106,56.01244753,-5.422443562
603,2010-04-01,69.6,Sorbie,115648,54.79252816,-4.42628864
604,2010-04-01,57.2,Drummore of Cantray,377134,57.48325079,-4.006176025
605,2010-04-01,92.8,Beltmoss,327235,55.98678855,-4.056528766
606,2010-04-01,32.0,Dalnamein,14960,56.79925858,-4.053453634
607,2010-04-01,84.0,Killilan,234252,57.31881832,-5.424835603
608,2010-04-01,28.2,Cheyne,335574,56.97482596,-2.266470239
609,2010-04-01,93.6,Knockanrock,115363,58.03118174,-5.07294078
610,2010-04-01,105.8,Loch Ailsh Level,354613,58.04827715,-4.855312073
611,2010-04-01,62.8,The Lecht,115244,57.20200168,-3.249607166
612,2010-04-01,75.6,Eliock,115562,55.34583036,-3.899113859
613,2010-04-01,78.4,Dunnswood STW (Cumbernauld),15180,55.97221885,-3.954505606
614,2010-04-01,0.0,Cairngorm Raingauge and Snow Scale,523676,57.1277019960426,-3.66295585786453
615,2010-04-01,0.0,Kinbuck,14890,56.2255551,-3.949530685
616,2010-04-01,48.8,Montrose,15078,56.69908575,-2.491155025
617,2010-04-01,35.8,Westhill,115250,57.14756943,-2.291989375
618,2010-04-01,64.2,Cabrach,234176,57.34816,-3.034565786
619,2010-04-01,23.4,Dunglass,15208,55.94267446,-2.382881362
620,2010-04-01,34.2,Old Mill of Newton,367364,57.35801578,-2.577016947
621,2010-04-01,51.6,Saline,15155,56.12224003,-3.585958925
622,2010-04-01,57.6,Lathro,14902,56.2213192,-3.42872292
623,2010-04-01,26.0,St Monance,335620,56.2047855,-2.78271364
624,2010-04-01,75.8,Daldowie STW,327232,55.83262494,-4.122714806
625,2010-04-01,54.2,Rossie Farm,15070,56.29912602,-3.202717904
626,2010-04-01,26.4,Tillicoultry,15158,56.148819,-3.7458095
627,2010-04-01,33.4,Rothienorman,115239,57.40900118,-2.466784574
628,2010-04-01,0.0,Kirkcudbright Raingauge,504458,54.84543419,-4.038511682
629,2010-04-01,40.2,Fife Airport,15151,56.1816502,-3.222449068
630,2010-04-01,40.4,Gordon Arms,14984,55.5113722712304,-3.09640690612754
631,2010-04-01,29.6,Moar,14949,56.57276553,-4.388958153
632,2010-04-01,110.2,Monyquil Farm,133115,55.56419458,-5.271931931
633,2010-04-01,0.0,Drum,464646,56.18484641,-3.532323684
634,2010-04-01,95.0,East Kilbride,115560,55.75477386,-4.171759227
635,2010-04-01,75.6,Weisdale Mill,116008,60.2593269,-1.288604022
636,2010-04-01,36.0,Nunraw Abbey,15215,55.92185875,-2.653499917
637,2010-04-01,31.6,Quarry Head,335575,57.63465034,-2.025944065
638,2010-04-01,99.2,Broadside,335609,56.02806207,-3.978158502
639,2010-04-01,89.4,Drumjohn,115557,55.24992466,-4.32205779
640,2010-04-01,63.4,Kindrogan,14955,56.74926972,-3.544931301
641,2010-04-01,142.4,New Kelso,234289,57.42953514,-5.429999168
642,2010-04-01,34.2,Mill Croft,354623,57.2886568,-7.368331541
643,2010-04-01,101.0,Luib,115376,57.5445048,-5.123945869
644,2010-04-01,58.8,Inverey,115230,56.98569953,-3.500915775
645,2010-04-01,40.2,RhynieGS,368013,57.3317252,-2.828953912
646,2010-04-01,60.0,Gella Bridge,14916,56.77535832,-3.027929218
647,2010-04-01,110.2,Tobermory,115654,56.62026156,-6.080645248
648,2010-04-01,155.2,Upper Monachlye,116007,56.39271229,-4.463706898
649,2010-04-01,0.0,Kirkwall,515885,58.9862236273856,-2.9493528634113
650,2010-04-01,58.0,Dingwall,115329,57.5999202496956,-4.44699709665912
651,2010-04-01,91.8,Charr,234183,56.94084906,-2.619402267
652,2010-04-01,18.6,Ladyflat Farm,368486,55.7563671174819,-2.36950120236659
653,2010-04-01,30.4,Bush,335612,55.86190844,-3.206554074
654,2010-04-01,27.8,Lyne Station,14974,55.6473318263272,-3.25808918040462
655,2010-04-01,61.8,Killermont Raingauge,341380,55.91108458,-4.305014408
656,2010-04-01,53.4,Avonbank,322556,55.66347112,-4.051617294
657,2010-04-01,0.0,Badbea,518147,57.8624394131174,-5.31874666420385
658,2010-04-01,59.6,Braidlie,133144,55.26142915,-2.824951121
659,2010-04-01,59.0,Glenmavis,327238,55.89359141,-4.013210328
660,2010-04-01,25.6,Nigg Headworks,335797,57.13140193,-2.061103972
661,2010-04-01,0.0,Dalblair,538510,55.44485443,-4.1519297
662,2010-04-01,51.0,Derry Lodge,454765,57.02065155,-3.58738853
663,2010-04-01,3.0,Bannockburn,14897,56.09528478,-3.911816854
664,2010-04-01,58.6,Whitburn,14881,55.87157334,-3.682936938
665,2010-04-01,101.4,Torwinny,234326,57.52198313,-3.446843553
666,2010-04-01,44.6,Invermark,14926,56.91121364,-2.914811966
667,2010-04-01,0.0,Cleuchhead,499810,56.94774412,-2.388756894
668,2010-04-01,36.6,Allanfearn,115302,57.49914747,-4.151564133
669,2010-04-01,112.8,South Moorhouse,115649,55.73251416,-4.350287842
670,2010-04-01,52.4,Muirkirk STW,115622,55.51335703,-4.096604222
671,2010-04-01,69.0,Capenoch Raingauge,576753,55.2266681707693,-3.8169342186531
672,2010-04-01,37.8,Dipple,115217,57.61125291,-3.115476523
673,2010-04-01,94.4,Greenock,327292,55.94370132,-4.723991358
674,2010-04-01,179.2,Glen Nevis,115343,56.79923208,-5.067543348
675,2010-04-01,94.4,Loch Droma,115368,57.73309629,-4.936434641
676,2010-04-01,0.0,Annfield,15198,56.06640057,-3.371633207
677,2010-04-01,40.0,Crichton,15224,55.84509063,-2.988655721
678,2010-04-01,0.0,Tarland WWTP,511327,57.1250488281981,-2.8514504640691
679,2010-04-01,168.2,Auchinner,14964,56.31678388,-4.112254665
680,2010-04-01,24.8,Cullen,234192,57.68712295,-2.83323079
681,2010-04-01,33.2,Avochie,234161,57.50564634,-2.782377895
682,2010-04-01,21.2,Gogarbank,15196,55.92834002,-3.342742573
683,2010-04-01,59.0,Biggar Burn,368536,55.6503509335496,-3.54376527843482
684,2010-04-01,178.6,Inveruglas,115588,56.2473573,-4.71287133
685,2010-04-01,101.4,Ross Priory,133124,56.05257642,-4.55746111
686,2010-04-01,76.8,Glenmuick No2,367371,56.95161175,-3.141253355
687,2010-04-01,0.0,Kinghorn Ecology Centre Rain Gauge,473550,56.07462319,-3.193432968
688,2010-04-01,15.2,Chesters,15004,55.3786296146422,-2.58960768063178
689,2010-04-01,68.0,Dalmarnock STW,327234,55.8374507,-4.216965486
690,2010-04-01,101.0,Brigton,115521,55.03779638,-4.566314357
691,2010-04-01,0.0,Glen Ample,335745,56.354577358483,-4.26999369364804
692,2010-04-01,39.0,Perth Norwich Union,341345,56.38611935,-3.464092253
693,2010-04-01,69.2,Coignafearn,115318,57.23285188,-4.139289943
694,2010-04-01,0.0,Baintown Rain-gauge,501947,56.22101614,-3.042679056
695,2010-04-01,0.0,Comer Farm,552791,56.2015072327063,-4.60131037579935
696,2010-04-01,12.2,Esslemont House,115221,57.36510966,-2.112363417
697,2010-04-01,62.4,Caldercruix STW,115526,55.88933558,-3.904553259
698,2010-04-01,86.6,Lochindorb North,336847,57.41478835,-3.691385645
699,2010-04-01,0.0,Loch Restil,485489,56.23604254,-4.853369348
700,2010-04-01,42.2,Waterside Perth,369554,56.89929851,-2.820760629
701,2010-04-01,36.6,Kirkcaldy,335617,56.11765342,-3.147961765
702,2010-04-01,0.0,Camphill WTW Raingauge,490984,55.75032761,-4.74461262
703,2010-04-01,0.0,Pluscarden Abbey,486057,57.59946107,-3.433170424
704,2010-04-01,0.0,Urquhart,115406,57.59399199,-4.374371661
705,2010-04-01,25.0,Mouthbridge,15022,55.770128146213,-2.27919326297828
706,2010-04-01,30.8,Boleside,533744,55.5916432342931,-2.79887877404223
707,2010-04-01,19.0,Harelaw,335614,55.91651494,-3.086776845
708,2010-04-01,63.0,Ingleston Farm,115585,54.81170556,-4.166358356
709,2010-04-01,0.0,Lochwinnoch,509677,55.7885315233721,-4.61894323306089
710,2010-04-01,0.0,Dunnottar Radio Station,509196,56.9465249628923,-2.21202446021694
711,2010-04-01,39.2,Burnfoot (Hawknest),115523,55.66513433,-3.895712474
712,2010-04-01,110.8,Craigdarroch,115541,55.196659,-3.981943267
713,2010-04-01,0.0,Corsock,336434,55.05876816,-3.945715778
714,2010-04-01,32.6,Colliston,14921,56.61000991,-2.637841019
715,2010-04-01,62.4,Spey Dam,234315,57.01121062,-4.336367491
716,2010-04-01,0.0,Balgray RG,490985,55.73428872,-4.5878755
717,2010-04-01,53.8,Kinkell Bridge,14968,56.33018709,-3.726992915
718,2010-04-01,0.0,Lossiemouth,473167,57.71918475,-3.323337879
719,2010-04-01,50.2,Kingledores,14972,55.54240926,-3.413947163
720,2010-04-01,192.0,Auchnafree,14952,56.47302976,-3.904678161
721,2010-04-01,0.0,Balfron STW,517412,56.0652344105772,-4.33334331797487
722,2010-04-01,49.4,Harperrig,15200,55.83652095,-3.435270947
723,2010-04-01,35.8,Dallachy No 2,205724,57.66404417,-3.071018416
724,2010-04-01,0.0,Bow Burn - WQMS,101227,55.44068058,-4.498633861
725,2010-04-01,10.6,Ormiston Mill,15007,55.5449192444277,-2.47331449245388
726,2010-04-01,42.0,Nairn Dunbar Golf Course,341224,57.59406094,-3.842759406
727,2010-04-01,89.8,Rhiconich,336217,58.42139172,-4.991227379
728,2010-04-01,25.0,Haddington STW,15226,55.9605092339233,-2.75022457021791
729,2010-04-01,50.2,Flichity,115339,57.33128618,-4.221750189
730,2010-04-01,45.0,Blackdyke Farm,115516,55.52935031,-4.326283061
731,2010-04-01,42.4,Canonbie Raingauge,306455,55.07786221,-2.942088127
732,2010-04-01,75.4,Birkie Hue,320371,58.16554218,-6.740713858
733,2010-04-01,39.0,Lanark STW,115603,55.67436394,-3.795938206
734,2010-04-01,78.6,Langwell Lodge,354621,57.9748238,-5.100589967
735,2010-04-01,113.0,Dunstaffnage,365257,56.45050242,-5.439870612
736,2010-04-01,41.8,Inshes,336367,57.45203372,-4.184715941
737,2010-04-01,42.2,Forehill,336372,57.50635026,-1.843281987
738,2010-04-01,0.0,Hazelwood Cottage,115582,56.2671528358581,-5.49466255293018
739,2010-04-01,65.8,Hydro Gardens Moffat,115584,55.34214596,-3.452988353
740,2010-04-01,14.0,Ayton Castle,15132,55.8472764491842,-2.11461102258224
741,2010-04-01,89.2,Inverewe Garden,115356,57.77399694,-5.596995718
742,2010-04-01,18.4,Luffness,14865,56.02022484,-2.821888561
743,2010-04-01,56.2,Penwhapple Reservoir,335375,55.23585144,-4.747897404
744,2010-04-01,107.8,Dippen,133077,55.58274848,-5.496523588
745,2010-04-01,97.6,Picketlaw Reservoir,115632,55.73611493,-4.281846657
746,2010-04-01,0.0,Frenich Farm,552790,56.2269416185393,-4.56047224967827
747,2010-04-01,67.0,Forsinain,115340,58.41100711,-3.873563607
748,2010-04-01,53.0,Corrimony,115322,57.33501743,-4.699729622
749,2010-04-01,102.2,Scardroy No3,347562,57.51892459,-4.985935657
750,2010-04-01,0.0,Einig Wood,492363,57.94421601,-4.764511928
751,2010-04-01,0.0,Tomatin No2,564863,57.3381639827187,-4.01336020841456
752,2010-04-01,75.6,Creed Bridge,234190,58.20454028,-6.424227928
753,2010-04-01,86.0,Gargunnock,14892,56.13266077,-4.070571402
754,2010-04-01,44.6,Teviothead,14999,55.3422273375472,-2.9364812156604
755,2010-04-01,50.4,Gilston,15114,55.80025456,-2.883463821
756,2010-04-01,62.2,Aberlour,234150,57.48021805,-3.205975095
757,2010-04-01,43.8,Kinmount House,115596,55.01095443,-3.351411196
758,2010-04-01,62.2,Stonyford,369551,56.84214794,-2.811870347
759,2010-04-01,43.4,Polhollick,234294,57.05514629,-3.083180673
760,2010-04-01,48.2,Halkirk,234231,58.5154974,-3.493004244
761,2010-04-01,167.6,Loch Katrine,14910,56.22701614,-4.436245731
762,2010-04-01,108.8,High Corrie (Gartmore),15166,56.1262023,-4.446294544
763,2010-04-01,22.4,Hatton (Perth),335640,56.52513594,-2.648539891
764,2010-04-01,43.2,Mylnefield,335651,56.46017678,-3.075838089
765,2010-04-01,91.6,Garls Craig,301168,55.36599829,-3.616030256
766,2010-04-01,36.2,Hatton No 2,115227,57.42757524,-1.909678484
767,2010-04-01,45.6,Boreland,115518,55.20254702,-3.320073284
768,2010-04-01,0.0,Dundreggan Rain Gauge,530175,57.1916154062172,-4.76763419920281
769,2010-04-01,66.8,Gladhouse Reservoir,15204,55.7784118,-3.117398754
770,2010-04-01,16.6,Dunbar,15216,56.00371307,-2.52752897
771,2010-04-01,157.6,Polloch,234295,56.75844885,-5.613663683
772,2010-04-01,23.0,North Berwick (Kingston),335621,56.03149667,-2.734270572
773,2010-04-01,91.6,Dosmucheran,234202,57.59587318,-5.005770119
774,2010-04-01,36.0,Glenochil,14891,56.14364525,-3.839304837
775,2010-04-01,62.2,Deskry Shiel,335582,57.18037959,-2.983867766
776,2010-04-01,158.0,Luss Raingauge,129558,56.09892116,-4.638863963
777,2010-04-01,58.6,Dalwhinnie,302120,56.94069555,-4.238639574
778,2010-04-01,33.0,Kirriemuir STW,361048,56.65983513,-2.999773468
779,2010-04-01,136.0,Braeroy Lodge,115315,56.98511362,-4.738585589
780,2010-04-01,63.4,Portling,115634,54.87093795,-3.744601282
781,2010-04-01,50.4,Millport,115618,55.74955539,-4.907441406
782,2010-04-01,25.2,Murton,335650,56.65077608,-2.823539396
783,2010-04-01,173.6,Glen Strae,133088,56.42522107,-5.000795867
784,2010-04-01,17.0,Jedburgh,15006,55.4852912237259,-2.54668703951087
785,2010-04-01,30.2,Alford,234170,57.24230294,-2.717123004
786,2010-04-01,70.0,Gatelawbridge,115568,55.25076797,-3.730683565
787,2010-04-01,81.4,Little Assynt,234264,58.1743810886208,-5.15230276806827
788,2010-04-01,34.8,Newton of Falkland,15083,56.25431474,-3.186268594
789,2010-04-01,57.8,Solwaybank,115647,55.08629786,-3.086937218
790,2010-04-01,0.0,Comiston Rain Gauge,525510,55.9101940076868,-3.21598826974242
791,2010-04-01,73.0,Mongour,115235,57.00199506,-2.388582046
792,2010-04-01,147.2,Coille Mhorgil,115319,57.0643694,-5.134923813
793,2010-04-01,0.0,Quinloch Farm,115638,56.0079586,-4.377500029
794,2010-04-01,97.8,Lagafater Lodge,115600,55.04328363,-4.913741812
795,2010-04-01,0.0,Rest and be Thankful,485490,56.22216848,-4.859016846
796,2010-04-01,0.0,Mill Of Gavel,205209,57.55561687,-2.009109628
797,2010-04-01,65.2,Delnashaugh,234198,57.39970792,-3.357845061
798,2010-04-01,29.4,Strowan,361047,56.36918493,-3.92115763
799,2010-04-01,50.4,Tromie Bridge,234327,57.0717185,-3.998638147
800,2010-04-01,63.0,Durkadale,234207,59.10852817,-3.232172832
801,2010-04-01,0.0,Hunterston Terminal,469625,55.74447583,-4.86116797
802,2010-04-01,48.4,Fourmerkland,115565,55.1650788,-3.412506453
803,2010-04-01,62.8,Amod Farm,115501,55.35009103,-5.717857841
804,2010-04-01,98.0,Loch Venachar,14898,56.23425763,-4.256866368
805,2010-04-01,0.0,White Clauchrie,502874,55.1412921,-4.677220867
806,2010-04-01,94.6,Minnigaff,338429,54.9588823,-4.471659058
807,2010-04-01,293.0,Allt Dearg House,115304,57.28490502,-6.187008123
808,2010-04-01,61.8,Sluggan,234314,57.2739976291366,-3.87599734801261
809,2010-04-01,74.6,Strathy Bridge,234319,58.55872143,-4.002604762
810,2010-04-01,0.0,Craigenlee Croft Raingauge,513003,54.8629459170786,-5.07527966446311
811,2010-04-01,0.0,Eskdalemuir Observatory,15100,55.3115132595484,-3.20679877544895
812,2010-04-01,93.6,Low Creoch,115611,54.90352684,-4.18922643
813,2010-04-01,27.6,Cambo Sands,338380,56.3008799,-2.650067453
814,2010-04-01,0.0,Milton of Evelix TBR,494729,57.8912874892072,-4.08416450338909
815,2010-04-01,54.4,Sgodachail,234305,57.8932766383122,-4.54697639942866
816,2010-04-01,112.8,Allnabad,234151,58.3471767644614,-4.64462101395753
817,2010-04-01,90.0,Amlaird,115500,55.66964373,-4.413260863
818,2010-04-01,64.6,Blackhills No 2,115203,57.61017023,-3.222796593
819,2010-04-01,70.2,Townfoot (Glencaple),323188,54.99473579,-3.568993615
820,2010-04-01,0.0,Shotts WWTW,494255,55.81395203,-3.811987501
821,2010-04-01,26.6,Torduff,15190,55.8968016,-3.267160193
822,2010-04-01,57.2,Inchvuilt,115354,57.40830735,-4.957620811
823,2010-04-01,0.0,Gifford Rain Gauge,474984,55.89043578,-2.768969478
824,2010-04-01,79.2,Brockhoperig,14987,55.4061285999832,-3.21151338374637
825,2010-05-01,37.0,Blackdyke Farm,115516,55.52935031,-4.326283061
826,2010-05-01,48.6,Townfoot (Glencaple),323188,54.99473579,-3.568993615
827,2010-05-01,48.0,Dipple,115217,57.61125291,-3.115476523
828,2010-05-01,0.0,Mill Of Gavel,205209,57.55561687,-2.009109628
829,2010-05-01,0.0,Culloden Battlefield,498341,57.47676464,-4.09126842
830,2010-05-01,44.6,Merton Bank Lochmaben,115617,55.13494009,-3.439865821
831,2010-05-01,33.0,Drumjohn,115557,55.24992466,-4.32205779
832,2010-05-01,42.0,Stonyford,369551,56.84214794,-2.811870347
833,2010-05-01,47.8,Crichton,15224,55.84509063,-2.988655721
834,2010-05-01,38.6,Kinmount House,115596,55.01095443,-3.351411196
835,2010-05-01,23.8,Millport,115618,55.74955539,-4.907441406
836,2010-05-01,35.8,Glenmuick No2,367371,56.95161175,-3.141253355
837,2010-05-01,27.4,Strathkelvin House,300383,55.94300475,-4.172710018
838,2010-05-01,47.0,Hatton (Perth),335640,56.52513594,-2.648539891
839,2010-05-01,36.0,Muirkirk STW,115622,55.51335703,-4.096604222
840,2010-05-01,55.8,Scardroy No3,347562,57.51892459,-4.985935657
841,2010-05-01,42.6,Balmedie STW,115202,57.25007263,-2.0473803
842,2010-05-01,0.0,Dundreggan Rain Gauge,530175,57.1916154062172,-4.76763419920281
843,2010-05-01,57.0,Luib,115376,57.5445048,-5.123945869
844,2010-05-01,21.6,Polmonthill STW,15187,55.99776804,-3.680208641
845,2010-05-01,40.4,Craigdarroch,115541,55.196659,-3.981943267
846,2010-05-01,75.8,Glenquey,464636,56.20739317,-3.642080305
847,2010-05-01,36.2,Rhian Bridge,115390,58.11499626,-4.439159665
848,2010-05-01,48.4,Torduff,15190,55.8968016,-3.267160193
849,2010-05-01,56.8,Lagafater Lodge,115600,55.04328363,-4.913741812
850,2010-05-01,64.4,Delnashaugh,234198,57.39970792,-3.357845061
851,2010-05-01,0.0,Lossiemouth,473167,57.71918475,-3.323337879
852,2010-05-01,44.4,Waterside Perth,369554,56.89929851,-2.820760629
853,2010-05-01,0.0,Tarland WWTP,511327,57.1250488281981,-2.8514504640691
854,2010-05-01,29.4,Culzean Castle,115544,55.35068095,-4.791520726
855,2010-05-01,30.2,Polhollick,234294,57.05514629,-3.083180673
856,2010-05-01,44.8,Flichity,115339,57.33128618,-4.221750189
857,2010-05-01,23.4,Gargunnock,14892,56.13266077,-4.070571402
858,2010-05-01,80.2,Low Creoch,115611,54.90352684,-4.18922643
859,2010-05-01,0.0,Comer Farm,552791,56.2015072327063,-4.60131037579935
860,2010-05-01,433.4,Inveruglas,115588,56.2473573,-4.71287133
861,2010-05-01,52.0,Drummore of Cantray,377134,57.48325079,-4.006176025
862,2010-05-01,33.0,Perth Norwich Union,341345,56.38611935,-3.464092253
863,2010-05-01,98.8,The Lecht,115244,57.20200168,-3.249607166
864,2010-05-01,19.8,Fife Airport,15151,56.1816502,-3.222449068
865,2010-05-01,44.2,Portling,115634,54.87093795,-3.744601282
866,2010-05-01,33.6,Daldowie STW,327232,55.83262494,-4.122714806
867,2010-05-01,56.4,Glen Strae,133088,56.42522107,-5.000795867
868,2010-05-01,35.0,Saline,15155,56.12224003,-3.585958925
869,2010-05-01,42.2,Dunstaffnage,365257,56.45050242,-5.439870612
870,2010-05-01,28.2,Murton,335650,56.65077608,-2.823539396
871,2010-05-01,46.6,Kirriemuir STW,361048,56.65983513,-2.999773468
872,2010-05-01,0.0,Pluscarden Abbey,486057,57.59946107,-3.433170424
873,2010-05-01,57.8,Mylnefield,335651,56.46017678,-3.075838089
874,2010-05-01,37.0,Harelaw,335614,55.91651494,-3.086776845
875,2010-05-01,0.0,Kirkcudbright Raingauge,504458,54.84543419,-4.038511682
876,2010-05-01,40.6,Mill Croft,354623,57.2886568,-7.368331541
877,2010-05-01,58.8,St Monance,335620,56.2047855,-2.78271364
878,2010-05-01,25.2,Gordon Arms,14984,55.5113722712304,-3.09640690612754
879,2010-05-01,39.6,Sluggan,234314,57.2739976291366,-3.87599734801261
880,2010-05-01,41.8,Gairnshiel,115223,57.09199509,-3.165582141
881,2010-05-01,68.0,Allnabad,234151,58.3471767644614,-4.64462101395753
882,2010-05-01,45.6,Luss Raingauge,129558,56.09892116,-4.638863963
883,2010-05-01,79.8,Allt Dearg House,115304,57.28490502,-6.187008123
884,2010-05-01,26.6,Burnfoot (Hawknest),115523,55.66513433,-3.895712474
885,2010-05-01,80.2,Alford,234170,57.24230294,-2.717123004
886,2010-05-01,26.2,Lukeston,327237,55.98447497,-4.240765022
887,2010-05-01,54.4,Dosmucheran,234202,57.59587318,-5.005770119
888,2010-05-01,34.0,Derry Lodge,454765,57.02065155,-3.58738853
889,2010-05-01,22.0,Glenochil,14891,56.14364525,-3.839304837
890,2010-05-01,83.4,Halkirk,234231,58.5154974,-3.493004244
891,2010-05-01,29.4,Allanfearn,115302,57.49914747,-4.151564133
892,2010-05-01,43.4,Bush,335612,55.86190844,-3.206554074
893,2010-05-01,68.6,Torwinny,234326,57.52198313,-3.446843553
894,2010-05-01,27.2,Luffness,14865,56.02022484,-2.821888561
895,2010-05-01,20.4,Prestwick,344764,55.50523784,-4.610940702
896,2010-05-01,32.0,Caldercruix STW,115526,55.88933558,-3.904553259
897,2010-05-01,37.4,Auchnafree,14952,56.47302976,-3.904678161
898,2010-05-01,39.2,Haddington STW,15226,55.9605092339233,-2.75022457021791
899,2010-05-01,0.0,Einig Wood,492363,57.94421601,-4.764511928
900,2010-05-01,63.2,Kirriereoch,115599,55.15077902,-4.571934377
901,2010-05-01,29.2,Ettrick Bay,115563,55.85650223,-5.145834193
902,2010-05-01,0.0,Glen Ample,335745,56.354577358483,-4.26999369364804
903,2010-05-01,38.6,Affric Lodge,115301,57.26272622,-5.005979754
904,2010-05-01,35.6,Picketlaw Reservoir,115632,55.73611493,-4.281846657
905,2010-05-01,26.0,Teviothead,14999,55.3422273375472,-2.9364812156604
906,2010-05-01,64.4,Strathy Bridge,234319,58.55872143,-4.002604762
907,2010-05-01,0.0,Dalblair,538510,55.44485443,-4.1519297
908,2010-05-01,0.0,Kirkwall,515885,58.9862236273856,-2.9493528634113
909,2010-05-01,106.4,Hatton No 2,115227,57.42757524,-1.909678484
910,2010-05-01,2.6,Bannockburn,14897,56.09528478,-3.911816854
911,2010-05-01,29.8,Dalwhinnie,302120,56.94069555,-4.238639574
912,2010-05-01,65.6,Cabrach,234176,57.34816,-3.034565786
913,2010-05-01,58.2,Glenmore Lodge No 2,115225,57.16421784,-3.677609728
914,2010-05-01,35.2,Mouthbridge,15022,55.770128146213,-2.27919326297828
915,2010-05-01,27.8,Glenmavis,327238,55.89359141,-4.013210328
916,2010-05-01,0.0,White Clauchrie,502874,55.1412921,-4.677220867
917,2010-05-01,39.0,Tobermory,115654,56.62026156,-6.080645248
918,2010-05-01,0.0,Corsock,336434,55.05876816,-3.945715778
919,2010-05-01,33.8,Biggar Burn,368536,55.6503509335496,-3.54376527843482
920,2010-05-01,0.0,Lyne Station,14974,55.6473318263272,-3.25808918040462
921,2010-05-01,27.8,Portmoak,15149,56.19239436,-3.334726298
922,2010-05-01,0.0,Lochwinnoch,509677,55.7885315233721,-4.61894323306089
923,2010-05-01,27.0,Avonbank,322556,55.66347112,-4.051617294
924,2010-05-01,20.2,Greenock,327292,55.94370132,-4.723991358
925,2010-05-01,44.2,Blackhills No 2,115203,57.61017023,-3.222796593
926,2010-05-01,41.0,Dallachy No 2,205724,57.66404417,-3.071018416
927,2010-05-01,53.4,Baluniefield,374852,56.48264025,-2.905576117
928,2010-05-01,73.0,Creed Bridge,234190,58.20454028,-6.424227928
929,2010-05-01,39.6,Saughall,115645,55.60098751,-4.226431521
930,2010-05-01,0.0,Balgray RG,490985,55.73428872,-4.5878755
931,2010-05-01,97.0,Knockanrock,115363,58.03118174,-5.07294078
932,2010-05-01,22.0,Beltmoss,327235,55.98678855,-4.056528766
933,2010-05-01,42.8,Gogarbank,15196,55.92834002,-3.342742573
934,2010-05-01,0.0,Frenich Farm,552790,56.2269416185393,-4.56047224967827
935,2010-05-01,51.6,Birkie Hue,320371,58.16554218,-6.740713858
936,2010-05-01,31.2,Kirkcaldy,335617,56.11765342,-3.147961765
937,2010-05-01,22.6,Dunnswood STW (Cumbernauld),15180,55.97221885,-3.954505606
938,2010-05-01,0.0,Cairngorm Raingauge and Snow Scale,523676,57.1277019960426,-3.66295585786453
939,2010-05-01,62.6,Avochie,234161,57.50564634,-2.782377895
940,2010-05-01,42.0,Harperrig,15200,55.83652095,-3.435270947
941,2010-05-01,45.2,Cullen,234192,57.68712295,-2.83323079
942,2010-05-01,41.6,Rossie Farm,15070,56.29912602,-3.202717904
943,2010-05-01,36.2,Ladyflat Farm,368486,55.7563671174819,-2.36950120236659
944,2010-05-01,42.8,Glenbreck,368490,55.4820219628409,-3.47775472797171
945,2010-05-01,57.8,Polloch,234295,56.75844885,-5.613663683
946,2010-05-01,92.8,Cambo Sands,338380,56.3008799,-2.650067453
947,2010-05-01,2.6,Upper Monachlye,116007,56.39271229,-4.463706898
948,2010-05-01,42.4,Glen Nevis,115343,56.79923208,-5.067543348
949,2010-05-01,26.2,Waulkmill Glen,115660,55.79484353,-4.353627607
950,2010-05-01,52.2,Abbey St Bathans,15018,55.8532963314108,-2.38744835623352
951,2010-05-01,46.6,Dalbeattie STW,115546,54.92152642,-3.821987578
952,2010-05-01,23.4,Slamannan,464630,55.94205217,-3.832217321
953,2010-05-01,0.0,Craigenlee Croft Raingauge,513003,54.8629459170786,-5.07527966446311
954,2010-05-01,3.8,Westhill,115250,57.14756943,-2.291989375
955,2010-05-01,62.2,Strathkinness,11368,56.33136897,-2.863918962
956,2010-05-01,17.2,Meadowfoot,115616,55.40534471,-3.799886702
957,2010-05-01,13.2,Corrimony,115322,57.33501743,-4.699729622
958,2010-05-01,0.0,Muirshiel RG,490986,55.84918458,-4.742664896
959,2010-05-01,34.4,Lanark STW,115603,55.67436394,-3.795938206
960,2010-05-01,68.8,Esslemont House,115221,57.36510966,-2.112363417
961,2010-05-01,36.8,Gladhouse Reservoir,15204,55.7784118,-3.117398754
962,2010-05-01,52.0,Sgodachail,234305,57.8932766383122,-4.54697639942866
963,2010-05-01,46.2,Braeroy Lodge,115315,56.98511362,-4.738585589
964,2010-05-01,54.0,Forsinain,115340,58.41100711,-3.873563607
965,2010-05-01,45.0,Weisdale Mill,116008,60.2593269,-1.288604022
966,2010-05-01,40.4,Ayton Castle,15132,55.8472764491842,-2.11461102258224
967,2010-05-01,37.0,Auchinner,14964,56.31678388,-4.112254665
968,2010-05-01,0.0,Comiston Rain Gauge,525510,55.9101940076868,-3.21598826974242
969,2010-05-01,47.2,Kilphedir,234253,58.1413891058536,-3.70281401936696
970,2010-05-01,59.4,Killilan,234252,57.31881832,-5.424835603
971,2010-05-01,45.4,Nigg Headworks,335797,57.13140193,-2.061103972
972,2010-05-01,23.8,Ormiston Mill,15007,55.5449192444277,-2.47331449245388
973,2010-05-01,0.0,Balfron STW,517412,56.0652344105772,-4.33334331797487
974,2010-05-01,45.4,Garrogie Lodge,464495,57.17006125,-4.442843871
975,2010-05-01,42.8,Amlaird,115500,55.66964373,-4.413260863
976,2010-05-01,58.6,Edinburgh RBG (Royal Botanic Garden),15201,55.9666233709368,-3.21231073711968
977,2010-05-01,0.0,Drum,464646,56.18484641,-3.532323684
978,2010-05-01,52.2,Coignafearn,115318,57.23285188,-4.139289943
979,2010-05-01,0.0,Milton of Evelix TBR,494729,57.8912874892072,-4.08416450338909
980,2010-05-01,32.0,Montrose,15078,56.69908575,-2.491155025
981,2010-05-01,0.0,Bow Burn - WQMS,101227,55.44068058,-4.498633861
982,2010-05-01,40.8,Inverewe Garden,115356,57.77399694,-5.596995718
983,2010-05-01,0.0,Cleuchhead,499810,56.94774412,-2.388756894
984,2010-05-01,0.0,Tomatin No2,564863,57.3381639827187,-4.01336020841456
985,2010-05-01,51.2,Dippen,133077,55.58274848,-5.496523588
986,2010-05-01,35.2,Broadside,335609,56.02806207,-3.978158502
987,2010-05-01,0.0,Quinloch Farm,115638,56.0079586,-4.377500029
988,2010-05-01,44.2,Braidlie,133144,55.26142915,-2.824951121
989,2010-05-01,40.8,Whitburn,14881,55.87157334,-3.682936938
990,2010-05-01,97.0,Laxdale,356217,57.86865846,-6.893581696
991,2010-05-01,24.6,Irvine Gailes,115589,55.58754361,-4.663320263
992,2010-05-01,58.0,Boreland,115518,55.20254702,-3.320073284
993,2010-05-01,29.4,Kingledores,14972,55.54240926,-3.413947163
994,2010-05-01,26.0,Killin,14933,56.45816211,-4.331876561
995,2010-05-01,39.8,Castle Kennedy,116042,54.90675279,-4.944931414
996,2010-05-01,79.8,Rhiconich,336217,58.42139172,-4.991227379
997,2010-05-01,31.4,Strowan,361047,56.36918493,-3.92115763
998,2010-05-01,30.0,Dalmarnock STW,327234,55.8374507,-4.216965486
999,2010-05-01,0.0,Badbea,518147,57.8624394131174,-5.31874666420385
1000,2010-05-01,33.0,Capenoch Raingauge,576753,55.2266681707693,-3.8169342186531
1001,2010-05-01,44.4,Newtonairds,115627,55.10134134,-3.742902191
1002,2010-05-01,42.6,High Corrie (Gartmore),15166,56.1262023,-4.446294544
1003,2010-05-01,0.0,Baintown Rain-gauge,501947,56.22101614,-3.042679056
1004,2010-05-01,0.0,Hunterston Terminal,469625,55.74447583,-4.86116797
1005,2010-05-01,28.4,Killermont Raingauge,341380,55.91108458,-4.305014408
1006,2010-05-01,71.4,Keith,367360,57.55084994,-2.952079018
1007,2010-05-01,37.8,Brockhoperig,14987,55.4061285999832,-3.21151338374637
1008,2010-05-01,0.0,Rest and be Thankful,485490,56.22216848,-4.859016846
1009,2010-05-01,45.0,Letham Grange,338381,56.60403394,-2.609495534
1010,2010-05-01,62.8,Charr,234183,56.94084906,-2.619402267
1011,2010-05-01,0.0,Hazelwood Cottage,115582,56.2671528358581,-5.49466255293018
1012,2010-05-01,24.2,Inverey,115230,56.98569953,-3.500915775
1013,2010-05-01,87.6,Lecht Weather Station,412495,57.19821668,-3.25888009
1014,2010-05-01,39.6,Kinkell Bridge,14968,56.33018709,-3.726992915
1015,2010-05-01,25.8,Auchentroig,15163,56.11221933,-4.342412217
1016,2010-05-01,32.6,Forter,14948,56.76674681,-3.332205729
1017,2010-05-01,41.0,Dunbar,15216,56.00371307,-2.52752897
1018,2010-05-01,32.2,Strathyre,15172,56.32054504,-4.328975608
1019,2010-05-01,42.6,Kindrogan,14955,56.74926972,-3.544931301
1020,2010-05-01,80.4,Langwell Lodge,354621,57.9748238,-5.100589967
1021,2010-05-01,36.2,Nunraw Abbey,15215,55.92185875,-2.653499917
1022,2010-05-01,32.4,Canonbie Raingauge,306455,55.07786221,-2.942088127
1023,2010-05-01,56.6,Lochindorb North,336847,57.41478835,-3.691385645
1024,2010-05-01,44.4,Invermark,14926,56.91121364,-2.914811966
1025,2010-05-01,43.6,Dalnamein,14960,56.79925858,-4.053453634
1026,2010-05-01,54.2,Brigton,115521,55.03779638,-4.566314357
1027,2010-05-01,0.0,Unthank Raingauge,506152,55.2428144328791,-2.96407300182699
1028,2010-05-01,0.0,Carmyllie-Hume Farm,577951,56.5746496931231,-2.74133187731856
1029,2010-05-01,49.4,Gilston,15114,55.80025456,-2.883463821
1030,2010-05-01,0.0,Eskdalemuir Observatory,15100,55.3115132595484,-3.20679877544895
1031,2010-05-01,32.0,Annfield,15198,56.06640057,-3.371633207
1032,2010-05-01,93.8,Loch Ailsh Level,354613,58.04827715,-4.855312073
1033,2010-05-01,20.2,Chesters,15004,55.3786296146422,-2.58960768063178
1034,2010-05-01,0.0,Gifford Rain Gauge,474984,55.89043578,-2.768969478
1035,2010-05-01,80.8,Mongour,115235,57.00199506,-2.388582046
1036,2010-05-01,17.4,Boleside,533744,55.5916432342931,-2.79887877404223
1037,2010-05-01,31.4,East Kilbride,115560,55.75477386,-4.171759227
1038,2010-05-01,50.2,Sorbie,115648,54.79252816,-4.42628864
1039,2010-05-01,66.4,Forehill,336372,57.50635026,-1.843281987
1040,2010-05-01,3.6,Lingerton,133106,56.01244753,-5.422443562
1041,2010-05-01,43.2,Inshes,336367,57.45203372,-4.184715941
1042,2010-05-01,70.8,Old Mill of Newton,367364,57.35801578,-2.577016947
1043,2010-05-01,32.8,Rothienorman,115239,57.40900118,-2.466784574
1044,2010-05-01,0.0,Auchdergannach,491811,57.22063972,-3.651932222
1045,2010-05-01,30.6,Loch Venachar,14898,56.23425763,-4.256866368
1046,2010-05-01,0.0,Camphill WTW Raingauge,490984,55.75032761,-4.74461262
1047,2010-05-01,64.6,Durkadale,234207,59.10852817,-3.232172832
1048,2010-05-01,37.4,Dunglass,15208,55.94267446,-2.382881362
1049,2010-05-01,39.4,Monyquil Farm,133115,55.56419458,-5.271931931
1050,2010-05-01,32.4,Eliock,115562,55.34583036,-3.899113859
1051,2010-05-01,58.4,Aberlour,234150,57.48021805,-3.205975095
1052,2010-05-01,42.8,South Moorhouse,115649,55.73251416,-4.350287842
1053,2010-05-01,0.0,Dunnottar Radio Station,509196,56.9465249628923,-2.21202446021694
1054,2010-05-01,27.6,Jedburgh,15006,55.4852912237259,-2.54668703951087
1055,2010-05-01,38.2,Hydro Gardens Moffat,115584,55.34214596,-3.452988353
1056,2010-05-01,42.8,Deskry Shiel,335582,57.18037959,-2.983867766
1057,2010-05-01,32.8,Gatelawbridge,115568,55.25076797,-3.730683565
1058,2010-05-01,42.2,Nairn Dunbar Golf Course,341224,57.59406094,-3.842759406
1059,2010-05-01,26.0,Penwhapple Reservoir,335375,55.23585144,-4.747897404
1060,2010-05-01,106.8,Little Assynt,234264,58.1743810886208,-5.15230276806827
1061,2010-05-01,28.0,Newton of Falkland,15083,56.25431474,-3.186268594
1062,2010-05-01,0.0,Urquhart,115406,57.59399199,-4.374371661
1063,2010-05-01,43.4,Solwaybank,115647,55.08629786,-3.086937218
1064,2010-05-01,29.4,Coille Mhorgil,115319,57.0643694,-5.134923813
1065,2010-05-01,49.0,Fourmerkland,115565,55.1650788,-3.412506453
1066,2010-05-01,34.4,Moar,14949,56.57276553,-4.388958153
1067,2010-05-01,37.0,Shiplaw,14975,55.7279691733531,-3.20729143414443
1068,2010-05-01,24.2,Lathro,14902,56.2213192,-3.42872292
1069,2010-05-01,61.4,Inverurie,367365,57.2583172,-2.362253256
1070,2010-05-01,42.2,Ingleston Farm,115585,54.81170556,-4.166358356
1071,2010-05-01,59.6,Quarry Head,335575,57.63465034,-2.025944065
1072,2010-05-01,35.2,Inchvuilt,115354,57.40830735,-4.957620811
1073,2010-05-01,35.0,Ross Priory,133124,56.05257642,-4.55746111
1074,2010-05-01,0.0,Kinghorn Ecology Centre Rain Gauge,473550,56.07462319,-3.193432968
1075,2010-05-01,21.6,Tillicoultry,15158,56.148819,-3.7458095
1076,2010-05-01,0.0,Baddinsgill Reservoir,15103,55.7838820984555,-3.39458495099376
1077,2010-05-01,30.0,Garls Craig,301168,55.36599829,-3.616030256
1078,2010-05-01,80.2,Loch Droma,115368,57.73309629,-4.936434641
1079,2010-05-01,54.2,Cheyne,335574,56.97482596,-2.266470239
1080,2010-05-01,0.0,Kinbuck,14890,56.2255551,-3.949530685
1081,2010-05-01,0.0,Loch Restil,485489,56.23604254,-4.853369348
1082,2010-05-01,41.6,Loch Katrine,14910,56.22701614,-4.436245731
1083,2010-05-01,0.0,Shotts WWTW,494255,55.81395203,-3.811987501
1084,2010-05-01,57.0,Minnigaff,338429,54.9588823,-4.471659058
1085,2010-05-01,53.4,Clachan-Seil,115534,56.30375755,-5.601429727
1086,2010-05-01,54.0,Wardend Bridge,234331,57.58239454,-3.608335401
1087,2010-05-01,29.8,North Berwick (Kingston),335621,56.03149667,-2.734270572
1088,2010-05-01,41.0,Colliston,14921,56.61000991,-2.637841019
1089,2010-05-01,60.8,RhynieGS,368013,57.3317252,-2.828953912
1090,2010-05-01,62.0,New Kelso,234289,57.42953514,-5.429999168
1091,2010-05-01,18.4,Dingwall,115329,57.5999202496956,-4.44699709665912
1092,2010-05-01,59.6,Tulchan,115247,57.399186873922,-3.44381881984428
1093,2010-05-01,13.4,Tromie Bridge,234327,57.0717185,-3.998638147
1094,2010-05-01,28.8,Deanston RG,341338,56.19223931,-4.077181451
1095,2010-05-01,36.2,Gella Bridge,14916,56.77535832,-3.027929218
1096,2010-05-01,24.4,Ashgrove,115506,55.66308049,-4.757486092
1097,2010-05-01,17.8,Spey Dam,234315,57.01121062,-4.336367491
1098,2010-05-01,55.4,Amod Farm,115501,55.35009103,-5.717857841
1099,2010-05-01,39.6,Braco (Dunduff),15161,56.28192154,-3.904225732
1100,2010-06-01,34.0,Sluggan,234314,57.2739976291366,-3.87599734801261
1101,2010-06-01,25.2,Brockhoperig,14987,55.4061285999832,-3.21151338374637
1102,2010-06-01,39.8,Amod Farm,115501,55.35009103,-5.717857841
1103,2010-06-01,0.0,Frenich Farm,552790,56.2269416185393,-4.56047224967827
1104,2010-06-01,0.0,Mill Of Gavel,205209,57.55561687,-2.009109628
1105,2010-06-01,17.8,Boreland,115518,55.20254702,-3.320073284
1106,2010-06-01,0.0,Eskdalemuir Observatory,15100,55.3115132595484,-3.20679877544895
1107,2010-06-01,0.0,Lochwinnoch,509677,55.7885315233721,-4.61894323306089
1108,2010-06-01,0.0,Kinghorn Ecology Centre Rain Gauge,473550,56.07462319,-3.193432968
1109,2010-06-01,0.0,Dundreggan Rain Gauge,530175,57.1916154062172,-4.76763419920281
1110,2010-06-01,30.2,Gilston,15114,55.80025456,-2.883463821
1111,2010-06-01,0.0,Corsock,336434,55.05876816,-3.945715778
1112,2010-06-01,30.0,High Corrie (Gartmore),15166,56.1262023,-4.446294544
1113,2010-06-01,22.0,Strathy Bridge,234319,58.55872143,-4.002604762
1114,2010-06-01,33.8,Harelaw,335614,55.91651494,-3.086776845
1115,2010-06-01,5.4,Halkirk,234231,58.5154974,-3.493004244
1116,2010-06-01,24.4,Gladhouse Reservoir,15204,55.7784118,-3.117398754
1117,2010-06-01,26.2,Burnfoot (Hawknest),115523,55.66513433,-3.895712474
1118,2010-06-01,30.8,Stonyford,369551,56.84214794,-2.811870347
1119,2010-06-01,61.0,Coille Mhorgil,115319,57.0643694,-5.134923813
1120,2010-06-01,38.8,Amlaird,115500,55.66964373,-4.413260863
1121,2010-06-01,65.0,Loch Katrine,14910,56.22701614,-4.436245731
1122,2010-06-01,40.0,Garls Craig,301168,55.36599829,-3.616030256
1123,2010-06-01,47.4,Flichity,115339,57.33128618,-4.221750189
1124,2010-06-01,23.8,Mylnefield,335651,56.46017678,-3.075838089
1125,2010-06-01,0.0,Milton of Evelix TBR,494729,57.8912874892072,-4.08416450338909
1126,2010-06-01,0.0,Rest and be Thankful,485490,56.22216848,-4.859016846
1127,2010-06-01,31.8,Hatton No 2,115227,57.42757524,-1.909678484
1128,2010-06-01,45.2,Ingleston Farm,115585,54.81170556,-4.166358356
1129,2010-06-01,32.0,Kinkell Bridge,14968,56.33018709,-3.726992915
1130,2010-06-01,19.6,Cambo Sands,338380,56.3008799,-2.650067453
1131,2010-06-01,0.0,Shotts WWTW,494255,55.81395203,-3.811987501
1132,2010-06-01,23.4,Newton of Falkland,15083,56.25431474,-3.186268594
1133,2010-06-01,0.0,Balgray RG,490985,55.73428872,-4.5878755
1134,2010-06-01,0.0,Hunterston Terminal,469625,55.74447583,-4.86116797
1135,2010-06-01,30.6,Saughall,115645,55.60098751,-4.226431521
1136,2010-06-01,20.4,Cheyne,335574,56.97482596,-2.266470239
1137,2010-06-01,50.2,Glenmuick No2,367371,56.95161175,-3.141253355
1138,2010-06-01,41.4,Deskry Shiel,335582,57.18037959,-2.983867766
1139,2010-06-01,35.0,Chesters,15004,55.3786296146422,-2.58960768063178
1140,2010-06-01,58.4,Luss Raingauge,129558,56.09892116,-4.638863963
1141,2010-06-01,26.2,Solwaybank,115647,55.08629786,-3.086937218
1142,2010-06-01,51.6,Braeroy Lodge,115315,56.98511362,-4.738585589
1143,2010-06-01,37.6,Dalwhinnie,302120,56.94069555,-4.238639574
1144,2010-06-01,30.0,Kirriemuir STW,361048,56.65983513,-2.999773468
1145,2010-06-01,19.0,Portling,115634,54.87093795,-3.744601282
1146,2010-06-01,48.4,Glen Strae,133088,56.42522107,-5.000795867
1147,2010-06-01,14.6,Jedburgh,15006,55.4852912237259,-2.54668703951087
1148,2010-06-01,0.0,Kirkwall,515885,58.9862236273856,-2.9493528634113
1149,2010-06-01,0.0,Tarland WWTP,511327,57.1250488281981,-2.8514504640691
1150,2010-06-01,39.0,Gatelawbridge,115568,55.25076797,-3.730683565
1151,2010-06-01,41.6,Waterside Perth,369554,56.89929851,-2.820760629
1152,2010-06-01,30.2,Birkie Hue,320371,58.16554218,-6.740713858
1153,2010-06-01,38.2,Mill Croft,354623,57.2886568,-7.368331541
1154,2010-06-01,22.2,Forsinain,115340,58.41100711,-3.873563607
1155,2010-06-01,41.2,Alford,234170,57.24230294,-2.717123004
1156,2010-06-01,0.0,Baddinsgill Reservoir,15103,55.7838820984555,-3.39458495099376
1157,2010-06-01,44.4,Spey Dam,234315,57.01121062,-4.336367491
1158,2010-06-01,23.4,Glenochil,14891,56.14364525,-3.839304837
1159,2010-06-01,0.0,Culloden Battlefield,498341,57.47676464,-4.09126842
1160,2010-06-01,63.6,Derry Lodge,454765,57.02065155,-3.58738853
1161,2010-06-01,25.0,North Berwick (Kingston),335621,56.03149667,-2.734270572
1162,2010-06-01,32.6,Lukeston,327237,55.98447497,-4.240765022
1163,2010-06-01,57.2,Little Assynt,234264,58.1743810886208,-5.15230276806827
1164,2010-06-01,24.8,Murton,335650,56.65077608,-2.823539396
1165,2010-06-01,25.6,Tillicoultry,15158,56.148819,-3.7458095
1166,2010-06-01,32.8,Torduff,15190,55.8968016,-3.267160193
1167,2010-06-01,56.6,The Lecht,115244,57.20200168,-3.249607166
1168,2010-06-01,39.6,Aberlour,234150,57.48021805,-3.205975095
1169,2010-06-01,28.2,Nairn Dunbar Golf Course,341224,57.59406094,-3.842759406
1170,2010-06-01,30.8,Sgodachail,234305,57.8932766383122,-4.54697639942866
1171,2010-06-01,0.0,Glen Ample,335745,56.354577358483,-4.26999369364804
1172,2010-06-01,35.2,Rhiconich,336217,58.42139172,-4.991227379
1173,2010-06-01,89.2,Langwell Lodge,354621,57.9748238,-5.100589967
1174,2010-06-01,33.8,Lochindorb North,336847,57.41478835,-3.691385645
1175,2010-06-01,0.0,Baintown Rain-gauge,501947,56.22101614,-3.042679056
1176,2010-06-01,54.4,Inshes,336367,57.45203372,-4.184715941
1177,2010-06-01,40.0,Corrimony,115322,57.33501743,-4.699729622
1178,2010-06-01,0.0,Craigenlee Croft Raingauge,513003,54.8629459170786,-5.07527966446311
1179,2010-06-01,31.2,Caldercruix STW,115526,55.88933558,-3.904553259
1180,2010-06-01,23.8,Perth Norwich Union,341345,56.38611935,-3.464092253
1181,2010-06-01,20.8,Lanark STW,115603,55.67436394,-3.795938206
1182,2010-06-01,17.4,Teviothead,14999,55.3422273375472,-2.9364812156604
1183,2010-06-01,36.6,Auchnafree,14952,56.47302976,-3.904678161
1184,2010-06-01,7.6,Ormiston Mill,15007,55.5449192444277,-2.47331449245388
1185,2010-06-01,0.0,Balfron STW,517412,56.0652344105772,-4.33334331797487
1186,2010-06-01,20.8,Esslemont House,115221,57.36510966,-2.112363417
1187,2010-06-01,0.0,Hazelwood Cottage,115582,56.2671528358581,-5.49466255293018
1188,2010-06-01,13.2,Ayton Castle,15132,55.8472764491842,-2.11461102258224
1189,2010-06-01,27.6,Inverewe Garden,115356,57.77399694,-5.596995718
1190,2010-06-01,0.0,Gifford Rain Gauge,474984,55.89043578,-2.768969478
1191,2010-06-01,108.2,Low Creoch,115611,54.90352684,-4.18922643
1192,2010-06-01,41.6,Allnabad,234151,58.3471767644614,-4.64462101395753
1193,2010-06-01,0.0,Dunnottar Radio Station,509196,56.9465249628923,-2.21202446021694
1194,2010-06-01,38.0,Gargunnock,14892,56.13266077,-4.070571402
1195,2010-06-01,0.0,White Clauchrie,502874,55.1412921,-4.677220867
1196,2010-06-01,0.0,Tomatin No2,564863,57.3381639827187,-4.01336020841456
1197,2010-06-01,27.6,Picketlaw Reservoir,115632,55.73611493,-4.281846657
1198,2010-06-01,10.4,Canonbie Raingauge,306455,55.07786221,-2.942088127
1199,2010-06-01,40.4,Dippen,133077,55.58274848,-5.496523588
1200,2010-06-01,24.0,Blackhills No 2,115203,57.61017023,-3.222796593
1201,2010-06-01,0.0,Urquhart,115406,57.59399199,-4.374371661
1202,2010-06-01,22.4,Colliston,14921,56.61000991,-2.637841019
1203,2010-06-01,38.8,Polhollick,234294,57.05514629,-3.083180673
1204,2010-06-01,0.0,Comer Farm,552791,56.2015072327063,-4.60131037579935
1205,2010-06-01,0.0,Pluscarden Abbey,486057,57.59946107,-3.433170424
1206,2010-06-01,34.0,Blackdyke Farm,115516,55.52935031,-4.326283061
1207,2010-06-01,38.2,Scardroy No3,347562,57.51892459,-4.985935657
1208,2010-06-01,39.8,Harperrig,15200,55.83652095,-3.435270947
1209,2010-06-01,0.0,Loch Restil,485489,56.23604254,-4.853369348
1210,2010-06-01,27.8,Dalmarnock STW,327234,55.8374507,-4.216965486
1211,2010-06-01,27.6,Kirkcaldy,335617,56.11765342,-3.147961765
1212,2010-06-01,24.2,Penwhapple Reservoir,335375,55.23585144,-4.747897404
1213,2010-06-01,12.2,Forehill,336372,57.50635026,-1.843281987
1214,2010-06-01,17.8,Fourmerkland,115565,55.1650788,-3.412506453
1215,2010-06-01,16.2,Hydro Gardens Moffat,115584,55.34214596,-3.452988353
1216,2010-06-01,36.0,Dallachy No 2,205724,57.66404417,-3.071018416
1217,2010-06-01,29.6,Dunstaffnage,365257,56.45050242,-5.439870612
1218,2010-06-01,16.8,Mouthbridge,15022,55.770128146213,-2.27919326297828
1219,2010-06-01,31.0,Townfoot (Glencaple),323188,54.99473579,-3.568993615
1220,2010-06-01,25.6,Inchvuilt,115354,57.40830735,-4.957620811
1221,2010-06-01,12.6,Boleside,533744,55.5916432342931,-2.79887877404223
1222,2010-06-01,51.2,Minnigaff,338429,54.9588823,-4.471659058
1223,2010-06-01,24.0,Kinmount House,115596,55.01095443,-3.351411196
1224,2010-06-01,0.0,Lossiemouth,473167,57.71918475,-3.323337879
1225,2010-06-01,52.6,Allt Dearg House,115304,57.28490502,-6.187008123
1226,2010-06-01,22.2,Craigdarroch,115541,55.196659,-3.981943267
1227,2010-06-01,32.4,Kingledores,14972,55.54240926,-3.413947163
1228,2010-06-01,0.0,Comiston Rain Gauge,525510,55.9101940076868,-3.21598826974242
1229,2010-06-01,56.0,Lagafater Lodge,115600,55.04328363,-4.913741812
1230,2010-06-01,41.0,Delnashaugh,234198,57.39970792,-3.357845061
1231,2010-06-01,55.2,Tromie Bridge,234327,57.0717185,-3.998638147
1232,2010-06-01,46.2,Loch Venachar,14898,56.23425763,-4.256866368
1233,2010-06-01,23.8,Millport,115618,55.74955539,-4.907441406
1234,2010-06-01,25.0,Durkadale,234207,59.10852817,-3.232172832
1235,2010-06-01,0.0,Camphill WTW Raingauge,490984,55.75032761,-4.74461262
1236,2010-06-01,65.8,Loch Ailsh Level,354613,58.04827715,-4.855312073
1237,2010-06-01,16.0,Hatton (Perth),335640,56.52513594,-2.648539891
1238,2010-06-01,24.0,Rhian Bridge,115390,58.11499626,-4.439159665
1239,2010-06-01,48.2,Allanfearn,115302,57.49914747,-4.151564133
1240,2010-06-01,54.8,Moar,14949,56.57276553,-4.388958153
1241,2010-06-01,25.0,Fife Airport,15151,56.1816502,-3.222449068
1242,2010-06-01,31.4,Crichton,15224,55.84509063,-2.988655721
1243,2010-06-01,0.0,Bow Burn - WQMS,101227,55.44068058,-4.498633861
1244,2010-06-01,44.8,Old Mill of Newton,367364,57.35801578,-2.577016947
1245,2010-06-01,56.8,Inverey,115230,56.98569953,-3.500915775
1246,2010-06-01,37.0,South Moorhouse,115649,55.73251416,-4.350287842
1247,2010-06-01,21.4,Ladyflat Farm,368486,55.7563671174819,-2.36950120236659
1248,2010-06-01,35.8,Polloch,234295,56.75844885,-5.613663683
1249,2010-06-01,41.4,Kindrogan,14955,56.74926972,-3.544931301
1250,2010-06-01,33.4,Gogarbank,15196,55.92834002,-3.342742573
1251,2010-06-01,18.2,Capenoch Raingauge,576753,55.2266681707693,-3.8169342186531
1252,2010-06-01,31.8,Dalnamein,14960,56.79925858,-4.053453634
1253,2010-06-01,0.0,Kirkcudbright Raingauge,504458,54.84543419,-4.038511682
1254,2010-06-01,3.0,Drum,464646,56.18484641,-3.532323684
1255,2010-06-01,44.6,Edinburgh RBG (Royal Botanic Garden),15201,55.9666233709368,-3.21231073711968
1256,2010-06-01,44.8,Ross Priory,133124,56.05257642,-4.55746111
1257,2010-06-01,46.6,Creed Bridge,234190,58.20454028,-6.424227928
1258,2010-06-01,21.6,Rothienorman,115239,57.40900118,-2.466784574
1259,2010-06-01,27.0,Biggar Burn,368536,55.6503509335496,-3.54376527843482
1260,2010-06-01,18.8,Gordon Arms,14984,55.5113722712304,-3.09640690612754
1261,2010-06-01,18.2,St Monance,335620,56.2047855,-2.78271364
1262,2010-06-01,37.6,Dosmucheran,234202,57.59587318,-5.005770119
1263,2010-06-01,20.2,Abbey St Bathans,15018,55.8532963314108,-2.38744835623352
1264,2010-06-01,0.0,Nigg Headworks,335797,57.13140193,-2.061103972
1265,2010-06-01,37.0,Glenmavis,327238,55.89359141,-4.013210328
1266,2010-06-01,26.6,Killermont Raingauge,341380,55.91108458,-4.305014408
1267,2010-06-01,31.0,Lyne Station,14974,55.6473318263272,-3.25808918040462
1268,2010-06-01,0.0,Dalblair,538510,55.44485443,-4.1519297
1269,2010-06-01,61.2,Inveruglas,115588,56.2473573,-4.71287133
1270,2010-06-01,0.0,Upper Monachlye,116007,56.39271229,-4.463706898
1271,2010-06-01,43.8,Monyquil Farm,133115,55.56419458,-5.271931931
1272,2010-06-01,26.8,Rossie Farm,15070,56.29912602,-3.202717904
1273,2010-06-01,26.8,Haddington STW,15226,55.9605092339233,-2.75022457021791
1274,2010-06-01,27.0,Avochie,234161,57.50564634,-2.782377895
1275,2010-06-01,39.0,Dipple,115217,57.61125291,-3.115476523
1276,2010-06-01,0.0,Cleuchhead,499810,56.94774412,-2.388756894
1277,2010-06-01,22.2,Nunraw Abbey,15215,55.92185875,-2.653499917
1278,2010-06-01,42.8,Annfield,15198,56.06640057,-3.371633207
1279,2010-06-01,36.4,Dunnswood STW (Cumbernauld),15180,55.97221885,-3.954505606
1280,2010-06-01,57.4,Invermark,14926,56.91121364,-2.914811966
1281,2010-06-01,27.8,Muirkirk STW,115622,55.51335703,-4.096604222
1282,2010-06-01,40.4,Broadside,335609,56.02806207,-3.978158502
1283,2010-06-01,17.0,Luffness,14865,56.02022484,-2.821888561
1284,2010-06-01,23.2,Westhill,115250,57.14756943,-2.291989375
1285,2010-06-01,35.6,Luib,115376,57.5445048,-5.123945869
1286,2010-06-01,37.2,RhynieGS,368013,57.3317252,-2.828953912
1287,2010-06-01,26.0,New Kelso,234289,57.42953514,-5.429999168
1288,2010-06-01,48.4,Coignafearn,115318,57.23285188,-4.139289943
1289,2010-06-01,32.6,Strowan,361047,56.36918493,-3.92115763
1290,2010-06-01,23.0,Dunglass,15208,55.94267446,-2.382881362
1291,2010-06-01,34.8,East Kilbride,115560,55.75477386,-4.171759227
1292,2010-06-01,33.4,Saline,15155,56.12224003,-3.585958925
1293,2010-06-01,57.6,Glen Nevis,115343,56.79923208,-5.067543348
1294,2010-06-01,52.6,Auchinner,14964,56.31678388,-4.112254665
1295,2010-06-01,18.4,Weisdale Mill,116008,60.2593269,-1.288604022
1296,2010-06-01,6.4,Quarry Head,335575,57.63465034,-2.025944065
1297,2010-06-01,17.8,Dunbar,15216,56.00371307,-2.52752897
1298,2010-06-01,16.4,Loch Droma,115368,57.73309629,-4.936434641
1299,2010-06-01,78.2,Greenock,327292,55.94370132,-4.723991358
1300,2010-06-01,43.2,Tobermory,115654,56.62026156,-6.080645248
1301,2010-06-01,25.0,Gella Bridge,14916,56.77535832,-3.027929218
1302,2010-06-01,0.0,Quinloch Farm,115638,56.0079586,-4.377500029
1303,2010-06-01,30.0,Dingwall,115329,57.5999202496956,-4.44699709665912
1304,2010-06-01,34.0,Cullen,234192,57.68712295,-2.83323079
1305,2010-06-01,1.0,Bannockburn,14897,56.09528478,-3.911816854
1306,2010-06-01,34.8,Daldowie STW,327232,55.83262494,-4.122714806
1307,2010-06-01,26.4,Whitburn,14881,55.87157334,-3.682936938
1308,2010-06-01,0.0,Badbea,518147,57.8624394131174,-5.31874666420385
1309,2010-06-01,0.0,Muirshiel RG,490986,55.84918458,-4.742664896
1310,2010-06-01,27.6,Kilphedir,234253,58.1413891058536,-3.70281401936696
1311,2010-06-01,34.4,Killilan,234252,57.31881832,-5.424835603
1312,2010-06-01,29.6,Meadowfoot,115616,55.40534471,-3.799886702
1313,2010-06-01,27.8,Waulkmill Glen,115660,55.79484353,-4.353627607
1314,2010-06-01,34.0,Dalbeattie STW,115546,54.92152642,-3.821987578
1315,2010-06-01,46.8,Drummore of Cantray,377134,57.48325079,-4.006176025
1316,2010-06-01,22.6,Culzean Castle,115544,55.35068095,-4.791520726
1317,2010-06-01,32.4,Mongour,115235,57.00199506,-2.388582046
1318,2010-06-01,0.0,Kinbuck,14890,56.2255551,-3.949530685
1319,2010-06-01,21.4,Eliock,115562,55.34583036,-3.899113859
1320,2010-06-01,31.4,Torwinny,234326,57.52198313,-3.446843553
1321,2010-06-01,49.8,Knockanrock,115363,58.03118174,-5.07294078
1322,2010-06-01,40.0,Lathro,14902,56.2213192,-3.42872292
1323,2010-06-01,8.0,Beltmoss,327235,55.98678855,-4.056528766
1324,2010-06-01,33.0,Inverurie,367365,57.2583172,-2.362253256
1325,2010-06-01,45.4,Charr,234183,56.94084906,-2.619402267
1326,2010-06-01,70.0,Glenquey,464636,56.20739317,-3.642080305
1327,2010-06-01,41.4,Wardend Bridge,234331,57.58239454,-3.608335401
1328,2010-06-01,25.6,Polmonthill STW,15187,55.99776804,-3.680208641
1329,2010-06-01,23.0,Clachan-Seil,115534,56.30375755,-5.601429727
1330,2010-06-01,26.0,Drumjohn,115557,55.24992466,-4.32205779
1331,2010-06-01,43.6,Glenbreck,368490,55.4820219628409,-3.47775472797171
1332,2010-06-01,0.0,Balmedie STW,115202,57.25007263,-2.0473803
1333,2010-06-01,25.8,Deanston RG,341338,56.19223931,-4.077181451
1334,2010-06-01,41.2,Strathkelvin House,300383,55.94300475,-4.172710018
1335,2010-06-01,27.4,Braco (Dunduff),15161,56.28192154,-3.904225732
1336,2010-06-01,42.2,Tulchan,115247,57.399186873922,-3.44381881984428
1337,2010-06-01,0.0,Cairngorm Raingauge and Snow Scale,523676,57.1277019960426,-3.66295585786453
1338,2010-06-01,0.0,Einig Wood,492363,57.94421601,-4.764511928
1339,2010-06-01,42.2,Ashgrove,115506,55.66308049,-4.757486092
1340,2010-06-01,60.6,Strathyre,15172,56.32054504,-4.328975608
1341,2010-06-01,24.2,Irvine Gailes,115589,55.58754361,-4.663320263
1342,2010-06-01,21.6,Strathkinness,11368,56.33136897,-2.863918962
1343,2010-06-01,36.4,Auchentroig,15163,56.11221933,-4.342412217
1344,2010-06-01,0.0,Unthank Raingauge,506152,55.2428144328791,-2.96407300182699
1345,2010-06-01,18.6,Letham Grange,338381,56.60403394,-2.609495534
1346,2010-06-01,34.2,Keith,367360,57.55084994,-2.952079018
1347,2010-06-01,23.4,Avonbank,322556,55.66347112,-4.051617294
1348,2010-06-01,28.8,Portmoak,15149,56.19239436,-3.334726298
1349,2010-06-01,29.8,Shiplaw,14975,55.7279691733531,-3.20729143414443
1350,2010-06-01,36.2,Glenmore Lodge No 2,115225,57.16421784,-3.677609728
1351,2010-06-01,79.2,Laxdale,356217,57.86865846,-6.893581696
1352,2010-06-01,21.0,Merton Bank Lochmaben,115617,55.13494009,-3.439865821
1353,2010-06-01,52.8,Gairnshiel,115223,57.09199509,-3.165582141
1354,2010-06-01,0.0,Lingerton,133106,56.01244753,-5.422443562
1355,2010-06-01,32.6,Bush,335612,55.86190844,-3.206554074
1356,2010-06-01,44.0,Braidlie,133144,55.26142915,-2.824951121
1357,2010-06-01,31.2,Sorbie,115648,54.79252816,-4.42628864
1358,2010-06-01,0.0,Auchdergannach,491811,57.22063972,-3.651932222
1359,2010-06-01,50.8,Garrogie Lodge,464495,57.17006125,-4.442843871
1360,2010-06-01,28.6,Slamannan,464630,55.94205217,-3.832217321
1361,2010-06-01,20.0,Montrose,15078,56.69908575,-2.491155025
1362,2010-06-01,28.4,Forter,14948,56.76674681,-3.332205729
1363,2010-06-01,34.8,Affric Lodge,115301,57.26272622,-5.005979754
1364,2010-06-01,30.4,Ettrick Bay,115563,55.85650223,-5.145834193
1365,2010-06-01,45.2,Kirriereoch,115599,55.15077902,-4.571934377
1366,2010-06-01,0.0,Carmyllie-Hume Farm,577951,56.5746496931231,-2.74133187731856
1367,2010-06-01,39.4,Castle Kennedy,116042,54.90675279,-4.944931414
1368,2010-06-01,21.8,Prestwick,344764,55.50523784,-4.610940702
1369,2010-06-01,63.0,Killin,14933,56.45816211,-4.331876561
1370,2010-06-01,55.8,Lecht Weather Station,412495,57.19821668,-3.25888009
1371,2010-06-01,52.8,Brigton,115521,55.03779638,-4.566314357
1372,2010-06-01,25.2,Baluniefield,374852,56.48264025,-2.905576117
1373,2010-06-01,34.0,Cabrach,234176,57.34816,-3.034565786
1374,2010-06-01,45.0,Newtonairds,115627,55.10134134,-3.742902191
1375,2010-07-01,150.8,Stonyford,369551,56.84214794,-2.811870347
1376,2010-07-01,106.6,Westhill,115250,57.14756943,-2.291989375
1377,2010-07-01,147.2,Caldercruix STW,115526,55.88933558,-3.904553259
1378,2010-07-01,139.8,Biggar Burn,368536,55.6503509335496,-3.54376527843482
1379,2010-07-01,104.6,Edinburgh RBG (Royal Botanic Garden),15201,55.9666233709368,-3.21231073711968
1380,2010-07-01,0.0,White Clauchrie,502874,55.1412921,-4.677220867
1381,2010-07-01,0.0,Cleuchhead,499810,56.94774412,-2.388756894
1382,2010-07-01,135.8,Weisdale Mill,116008,60.2593269,-1.288604022
1383,2010-07-01,120.6,Greenock,327292,55.94370132,-4.723991358
1384,2010-07-01,163.6,Low Creoch,115611,54.90352684,-4.18922643
1385,2010-07-01,124.6,Baluniefield,374852,56.48264025,-2.905576117
1386,2010-07-01,137.8,Gordon Arms,14984,55.5113722712304,-3.09640690612754
1387,2010-07-01,190.6,Broadside,335609,56.02806207,-3.978158502
1388,2010-07-01,210.4,South Moorhouse,115649,55.73251416,-4.350287842
1389,2010-07-01,114.0,Burnfoot (Hawknest),115523,55.66513433,-3.895712474
1390,2010-07-01,264.2,Monyquil Farm,133115,55.56419458,-5.271931931
1391,2010-07-01,230.4,Glen Nevis,115343,56.79923208,-5.067543348
1392,2010-07-01,123.6,Daldowie STW,327232,55.83262494,-4.122714806
1393,2010-07-01,136.4,Rothienorman,115239,57.40900118,-2.466784574
1394,2010-07-01,268.2,Coille Mhorgil,115319,57.0643694,-5.134923813
1395,2010-07-01,164.2,Garls Craig,301168,55.36599829,-3.616030256
1396,2010-07-01,136.6,Capenoch Raingauge,576753,55.2266681707693,-3.8169342186531
1397,2010-07-01,108.6,Mill Croft,354623,57.2886568,-7.368331541
1398,2010-07-01,95.4,Crichton,15224,55.84509063,-2.988655721
1399,2010-07-01,212.8,Loch Katrine,14910,56.22701614,-4.436245731
1400,2010-07-01,16.2,Halkirk,234231,58.5154974,-3.493004244
1401,2010-07-01,77.0,Flichity,115339,57.33128618,-4.221750189
1402,2010-07-01,116.6,Annfield,15198,56.06640057,-3.371633207
1403,2010-07-01,134.4,Mylnefield,335651,56.46017678,-3.075838089
1404,2010-07-01,165.4,East Kilbride,115560,55.75477386,-4.171759227
1405,2010-07-01,105.0,Ingleston Farm,115585,54.81170556,-4.166358356
1406,2010-07-01,220.8,Auchinner,14964,56.31678388,-4.112254665
1407,2010-07-01,0.0,Balgray RG,490985,55.73428872,-4.5878755
1408,2010-07-01,148.4,Fife Airport,15151,56.1816502,-3.222449068
1409,2010-07-01,140.6,Allnabad,234151,58.3471767644614,-4.64462101395753
1410,2010-07-01,157.4,Ross Priory,133124,56.05257642,-4.55746111
1411,2010-07-01,146.0,Rossie Farm,15070,56.29912602,-3.202717904
1412,2010-07-01,52.4,Ormiston Mill,15007,55.5449192444277,-2.47331449245388
1413,2010-07-01,165.2,Moar,14949,56.57276553,-4.388958153
1414,2010-07-01,82.8,Harelaw,335614,55.91651494,-3.086776845
1415,2010-07-01,98.2,Allanfearn,115302,57.49914747,-4.151564133
1416,2010-07-01,0.0,Upper Monachlye,116007,56.39271229,-4.463706898
1417,2010-07-01,0.0,Dundreggan Rain Gauge,530175,57.1916154062172,-4.76763419920281
1418,2010-07-01,76.4,Ladyflat Farm,368486,55.7563671174819,-2.36950120236659
1419,2010-07-01,193.4,Boreland,115518,55.20254702,-3.320073284
1420,2010-07-01,0.0,Craigenlee Croft Raingauge,513003,54.8629459170786,-5.07527966446311
1421,2010-07-01,114.6,Inshes,336367,57.45203372,-4.184715941
1422,2010-07-01,137.6,Drum,464646,56.18484641,-3.532323684
1423,2010-07-01,104.0,Inverey,115230,56.98569953,-3.500915775
1424,2010-07-01,109.2,RhynieGS,368013,57.3317252,-2.828953912
1425,2010-07-01,110.6,Amod Farm,115501,55.35009103,-5.717857841
1426,2010-07-01,83.4,Saline,15155,56.12224003,-3.585958925
1427,2010-07-01,148.4,Invermark,14926,56.91121364,-2.914811966
1428,2010-07-01,85.2,Dingwall,115329,57.5999202496956,-4.44699709665912
1429,2010-07-01,90.0,Dunglass,15208,55.94267446,-2.382881362
1430,2010-07-01,119.2,Dipple,115217,57.61125291,-3.115476523
1431,2010-07-01,127.2,Avochie,234161,57.50564634,-2.782377895
1432,2010-07-01,0.0,Gifford Rain Gauge,474984,55.89043578,-2.768969478
1433,2010-07-01,88.8,Nunraw Abbey,15215,55.92185875,-2.653499917
1434,2010-07-01,128.6,Creed Bridge,234190,58.20454028,-6.424227928
1435,2010-07-01,0.0,Dunnottar Radio Station,509196,56.9465249628923,-2.21202446021694
1436,2010-07-01,158.4,Muirkirk STW,115622,55.51335703,-4.096604222
1437,2010-07-01,36.4,Dunnswood STW (Cumbernauld),15180,55.97221885,-3.954505606
1438,2010-07-01,0.0,Kirkcudbright Raingauge,504458,54.84543419,-4.038511682
1439,2010-07-01,0.0,Mill Of Gavel,205209,57.55561687,-2.009109628
1440,2010-07-01,0.0,Kinghorn Ecology Centre Rain Gauge,473550,56.07462319,-3.193432968
1441,2010-07-01,156.0,Old Mill of Newton,367364,57.35801578,-2.577016947
1442,2010-07-01,146.2,Kingledores,14972,55.54240926,-3.413947163
1443,2010-07-01,111.4,Sgodachail,234305,57.8932766383122,-4.54697639942866
1444,2010-07-01,98.8,Tromie Bridge,234327,57.0717185,-3.998638147
1445,2010-07-01,0.0,Kirkwall,515885,58.9862236273856,-2.9493528634113
1446,2010-07-01,125.4,Dosmucheran,234202,57.59587318,-5.005770119
1447,2010-07-01,137.4,Kindrogan,14955,56.74926972,-3.544931301
1448,2010-07-01,133.8,Wardend Bridge,234331,57.58239454,-3.608335401
1449,2010-07-01,127.6,Rhian Bridge,115390,58.11499626,-4.439159665
1450,2010-07-01,122.4,Dalnamein,14960,56.79925858,-4.053453634
1451,2010-07-01,122.4,Whitburn,14881,55.87157334,-3.682936938
1452,2010-07-01,199.8,Craigdarroch,115541,55.196659,-3.981943267
1453,2010-07-01,121.0,Colliston,14921,56.61000991,-2.637841019
1454,2010-07-01,142.6,Gella Bridge,14916,56.77535832,-3.027929218
1455,2010-07-01,136.6,Strathkelvin House,300383,55.94300475,-4.172710018
1456,2010-07-01,131.2,Minnigaff,338429,54.9588823,-4.471659058
1457,2010-07-01,203.2,Glenquey,464636,56.20739317,-3.642080305
1458,2010-07-01,151.8,Teviothead,14999,55.3422273375472,-2.9364812156604
1459,2010-07-01,114.2,Deanston RG,341338,56.19223931,-4.077181451
1460,2010-07-01,190.6,Clachan-Seil,115534,56.30375755,-5.601429727
1461,2010-07-01,100.8,Nairn Dunbar Golf Course,341224,57.59406094,-3.842759406
1462,2010-07-01,123.2,Delnashaugh,234198,57.39970792,-3.357845061
1463,2010-07-01,141.8,Canonbie Raingauge,306455,55.07786221,-2.942088127
1464,2010-07-01,206.0,New Kelso,234289,57.42953514,-5.429999168
1465,2010-07-01,104.6,Inchvuilt,115354,57.40830735,-4.957620811
1466,2010-07-01,152.4,Saughall,115645,55.60098751,-4.226431521
1467,2010-07-01,0.0,Lossiemouth,473167,57.71918475,-3.323337879
1468,2010-07-01,124.2,Cheyne,335574,56.97482596,-2.266470239
1469,2010-07-01,150.0,Inverewe Garden,115356,57.77399694,-5.596995718
1470,2010-07-01,82.8,Polhollick,234294,57.05514629,-3.083180673
1471,2010-07-01,151.2,Langwell Lodge,354621,57.9748238,-5.100589967
1472,2010-07-01,169.0,Drumjohn,115557,55.24992466,-4.32205779
1473,2010-07-01,170.4,Lagafater Lodge,115600,55.04328363,-4.913741812
1474,2010-07-01,129.4,Polmonthill STW,15187,55.99776804,-3.680208641
1475,2010-07-01,172.0,Ashgrove,115506,55.66308049,-4.757486092
1476,2010-07-01,262.2,Polloch,234295,56.75844885,-5.613663683
1477,2010-07-01,133.4,Eliock,115562,55.34583036,-3.899113859
1478,2010-07-01,87.4,Forsinain,115340,58.41100711,-3.873563607
1479,2010-07-01,0.0,Bow Burn - WQMS,101227,55.44068058,-4.498633861
1480,2010-07-01,116.2,The Lecht,115244,57.20200168,-3.249607166
1481,2010-07-01,211.8,Tobermory,115654,56.62026156,-6.080645248
1482,2010-07-01,0.0,Balmedie STW,115202,57.25007263,-2.0473803
1483,2010-07-01,204.8,Knockanrock,115363,58.03118174,-5.07294078
1484,2010-07-01,74.8,Dunbar,15216,56.00371307,-2.52752897
1485,2010-07-01,119.6,Torduff,15190,55.8968016,-3.267160193
1486,2010-07-01,0.0,Cairngorm Raingauge and Snow Scale,523676,57.1277019960426,-3.66295585786453
1487,2010-07-01,163.2,Townfoot (Glencaple),323188,54.99473579,-3.568993615
1488,2010-07-01,116.8,Tulchan,115247,57.399186873922,-3.44381881984428
1489,2010-07-01,6.2,Strowan,361047,56.36918493,-3.92115763
1490,2010-07-01,146.8,Fourmerkland,115565,55.1650788,-3.412506453
1491,2010-07-01,0.0,Einig Wood,492363,57.94421601,-4.764511928
1492,2010-07-01,181.6,Beltmoss,327235,55.98678855,-4.056528766
1493,2010-07-01,140.0,Kirkcaldy,335617,56.11765342,-3.147961765
1494,2010-07-01,103.4,Birkie Hue,320371,58.16554218,-6.740713858
1495,2010-07-01,122.8,Inverurie,367365,57.2583172,-2.362253256
1496,2010-07-01,0.0,Braco (Dunduff),15161,56.28192154,-3.904225732
1497,2010-07-01,197.8,Loch Ailsh Level,354613,58.04827715,-4.855312073
1498,2010-07-01,116.6,Coignafearn,115318,57.23285188,-4.139289943
1499,2010-07-01,0.0,Quinloch Farm,115638,56.0079586,-4.377500029
1500,2010-07-01,67.4,Haddington STW,15226,55.9605092339233,-2.75022457021791
1501,2010-07-01,123.0,Harperrig,15200,55.83652095,-3.435270947
1502,2010-07-01,0.0,Glen Ample,335745,56.354577358483,-4.26999369364804
1503,2010-07-01,0.0,Baintown Rain-gauge,501947,56.22101614,-3.042679056
1504,2010-07-01,0.6,Kinbuck,14890,56.2255551,-3.949530685
1505,2010-07-01,117.4,Torwinny,234326,57.52198313,-3.446843553
1506,2010-07-01,70.6,Luffness,14865,56.02022484,-2.821888561
1507,2010-07-01,118.2,Waterside Perth,369554,56.89929851,-2.820760629
